{
"type": "FeatureCollection",
"crs": { "type": "name", "properties": { "name": "urn:ogc:def:crs:OGC:1.3:CRS84" } },
                                                                                
"features": [
{ "type": "Feature", "properties": { "NUMMER": 7261, "BAUMBEZEICHNUNG_BOTANISCH": "Aesculus hippocastanum", "BAUMBEZEICHNUNG_DEUTSCH": "Gemeine Roßkastanie", "BAUMTYP": "Laub", "BEMERKUNG": null, "PFLANZJAHR": null, "ENTNAHMEJAHR": null, "BAUMPATENSCHAFT": null, "ALTERSKLASSIZIERUNG": "mittel", "OBJECTID": 1 }, "geometry": { "type": "Point", "coordinates": [ 15.450843795974695, 47.083677313862061 ] } },
{ "type": "Feature", "properties": { "NUMMER": 12481, "BAUMBEZEICHNUNG_BOTANISCH": "Tilia henryana", "BAUMBEZEICHNUNG_DEUTSCH": "Linde", "BAUMTYP": "Laub", "BEMERKUNG": null, "PFLANZJAHR": "1983", "ENTNAHMEJAHR": null, "BAUMPATENSCHAFT": null, "ALTERSKLASSIZIERUNG": "mittel", "OBJECTID": 6 }, "geometry": { "type": "Point", "coordinates": [ 15.419914274290051, 47.07953670082977 ] } },
{ "type": "Feature", "properties": { "NUMMER": 21535, "BAUMBEZEICHNUNG_BOTANISCH": "Acer pseudoplatanus", "BAUMBEZEICHNUNG_DEUTSCH": "Bergahorn", "BAUMTYP": "Laub", "BEMERKUNG": null, "PFLANZJAHR": null, "ENTNAHMEJAHR": null, "BAUMPATENSCHAFT": null, "ALTERSKLASSIZIERUNG": "mittel", "OBJECTID": 8 }, "geometry": { "type": "Point", "coordinates": [ 15.429307112495856, 47.112924511718084 ] } },
{ "type": "Feature", "properties": { "NUMMER": 3066, "BAUMBEZEICHNUNG_BOTANISCH": "Aesculus hippocastanum", "BAUMBEZEICHNUNG_DEUTSCH": "Gemeine Roßkastanie", "BAUMTYP": "Laub", "BEMERKUNG": null, "PFLANZJAHR": null, "ENTNAHMEJAHR": null, "BAUMPATENSCHAFT": null, "ALTERSKLASSIZIERUNG": "mittel", "OBJECTID": 10 }, "geometry": { "type": "Point", "coordinates": [ 15.445335436240047, 47.071118250467222 ] } },
{ "type": "Feature", "properties": { "NUMMER": 3120, "BAUMBEZEICHNUNG_BOTANISCH": "Catalpa bignonioides", "BAUMBEZEICHNUNG_DEUTSCH": "Trompetenbaum", "BAUMTYP": "Laub", "BEMERKUNG": null, "PFLANZJAHR": null, "ENTNAHMEJAHR": null, "BAUMPATENSCHAFT": null, "ALTERSKLASSIZIERUNG": "mittel", "OBJECTID": 11 }, "geometry": { "type": "Point", "coordinates": [ 15.444283191821977, 47.071974746085324 ] } },
{ "type": "Feature", "properties": { "NUMMER": 1259, "BAUMBEZEICHNUNG_BOTANISCH": "Juglans nigra", "BAUMBEZEICHNUNG_DEUTSCH": "Schwarznuß", "BAUMTYP": "Laub", "BEMERKUNG": null, "PFLANZJAHR": null, "ENTNAHMEJAHR": null, "BAUMPATENSCHAFT": null, "ALTERSKLASSIZIERUNG": "mittel", "OBJECTID": 12 }, "geometry": { "type": "Point", "coordinates": [ 15.446170907097747, 47.071987847372355 ] } },
{ "type": "Feature", "properties": { "NUMMER": 24183, "BAUMBEZEICHNUNG_BOTANISCH": "Prunus serrulata", "BAUMBEZEICHNUNG_DEUTSCH": "Japanische Kirsche", "BAUMTYP": "Laub", "BEMERKUNG": null, "PFLANZJAHR": null, "ENTNAHMEJAHR": null, "BAUMPATENSCHAFT": "Fa. Kastner & Öhler", "ALTERSKLASSIZIERUNG": "jung", "OBJECTID": 15 }, "geometry": { "type": "Point", "coordinates": [ 15.393794311040057, 47.067824609635608 ] } },
{ "type": "Feature", "properties": { "NUMMER": 18358, "BAUMBEZEICHNUNG_BOTANISCH": "Acer pseudoplatanus", "BAUMBEZEICHNUNG_DEUTSCH": "Bergahorn", "BAUMTYP": "Laub", "BEMERKUNG": null, "PFLANZJAHR": null, "ENTNAHMEJAHR": null, "BAUMPATENSCHAFT": null, "ALTERSKLASSIZIERUNG": "mittel", "OBJECTID": 18 }, "geometry": { "type": "Point", "coordinates": [ 15.386400888402537, 47.045169307338377 ] } },
{ "type": "Feature", "properties": { "NUMMER": 31775, "BAUMBEZEICHNUNG_BOTANISCH": "Malus 'Roter Grafensteiner'", "BAUMBEZEICHNUNG_DEUTSCH": "Sommerapfel", "BAUMTYP": "Laub", "BEMERKUNG": null, "PFLANZJAHR": "2014", "ENTNAHMEJAHR": null, "BAUMPATENSCHAFT": null, "ALTERSKLASSIZIERUNG": "jung", "OBJECTID": 19 }, "geometry": { "type": "Point", "coordinates": [ 15.445320141679328, 47.10378272546189 ] } },
{ "type": "Feature", "properties": { "NUMMER": 16794, "BAUMBEZEICHNUNG_BOTANISCH": "Acer saccharinum", "BAUMBEZEICHNUNG_DEUTSCH": "Zuckerahorn", "BAUMTYP": "Laub", "BEMERKUNG": null, "PFLANZJAHR": null, "ENTNAHMEJAHR": null, "BAUMPATENSCHAFT": null, "ALTERSKLASSIZIERUNG": "alt", "OBJECTID": 20 }, "geometry": { "type": "Point", "coordinates": [ 15.403370552757943, 47.054609741601062 ] } },
{ "type": "Feature", "properties": { "NUMMER": 4647, "BAUMBEZEICHNUNG_BOTANISCH": "Juglans regia", "BAUMBEZEICHNUNG_DEUTSCH": "Walnuß", "BAUMTYP": "Laub", "BEMERKUNG": null, "PFLANZJAHR": null, "ENTNAHMEJAHR": null, "BAUMPATENSCHAFT": null, "ALTERSKLASSIZIERUNG": "mittel", "OBJECTID": 23 }, "geometry": { "type": "Point", "coordinates": [ 15.447617028671027, 47.087931927850057 ] } },
{ "type": "Feature", "properties": { "NUMMER": 2266, "BAUMBEZEICHNUNG_BOTANISCH": "Picea abies", "BAUMBEZEICHNUNG_DEUTSCH": "Rotfichte", "BAUMTYP": "Nadel", "BEMERKUNG": null, "PFLANZJAHR": null, "ENTNAHMEJAHR": null, "BAUMPATENSCHAFT": null, "ALTERSKLASSIZIERUNG": "mittel", "OBJECTID": 24 }, "geometry": { "type": "Point", "coordinates": [ 15.445021978190663, 47.075599771879865 ] } },
{ "type": "Feature", "properties": { "NUMMER": 16861, "BAUMBEZEICHNUNG_BOTANISCH": "Gleditsia triacanthos", "BAUMBEZEICHNUNG_DEUTSCH": "Christusdorn", "BAUMTYP": "Laub", "BEMERKUNG": null, "PFLANZJAHR": "1989", "ENTNAHMEJAHR": null, "BAUMPATENSCHAFT": null, "ALTERSKLASSIZIERUNG": "mittel", "OBJECTID": 25 }, "geometry": { "type": "Point", "coordinates": [ 15.397441840711393, 47.025077838902867 ] } },
{ "type": "Feature", "properties": { "NUMMER": 15377, "BAUMBEZEICHNUNG_BOTANISCH": "Crataegus sp.", "BAUMBEZEICHNUNG_DEUTSCH": "Weißdorn", "BAUMTYP": "Laub", "BEMERKUNG": null, "PFLANZJAHR": null, "ENTNAHMEJAHR": null, "BAUMPATENSCHAFT": null, "ALTERSKLASSIZIERUNG": "mittel", "OBJECTID": 27 }, "geometry": { "type": "Point", "coordinates": [ 15.390766398587763, 47.062772052202106 ] } },
{ "type": "Feature", "properties": { "NUMMER": 7543, "BAUMBEZEICHNUNG_BOTANISCH": "Betula pendula", "BAUMBEZEICHNUNG_DEUTSCH": "Sandbirke, Weißbirke", "BAUMTYP": "Laub", "BEMERKUNG": null, "PFLANZJAHR": null, "ENTNAHMEJAHR": null, "BAUMPATENSCHAFT": null, "ALTERSKLASSIZIERUNG": "alt", "OBJECTID": 29 }, "geometry": { "type": "Point", "coordinates": [ 15.460718248367781, 47.086512606347107 ] } },
{ "type": "Feature", "properties": { "NUMMER": 12772, "BAUMBEZEICHNUNG_BOTANISCH": "Aesculus hippocastanum", "BAUMBEZEICHNUNG_DEUTSCH": "Gemeine Roßkastanie", "BAUMTYP": "Laub", "BEMERKUNG": null, "PFLANZJAHR": null, "ENTNAHMEJAHR": null, "BAUMPATENSCHAFT": null, "ALTERSKLASSIZIERUNG": "alt", "OBJECTID": 30 }, "geometry": { "type": "Point", "coordinates": [ 15.425799142326316, 47.07702504981318 ] } },
{ "type": "Feature", "properties": { "NUMMER": 24342, "BAUMBEZEICHNUNG_BOTANISCH": "Aesculus hippocastanum", "BAUMBEZEICHNUNG_DEUTSCH": "Gemeine Roßkastanie", "BAUMTYP": "Laub", "BEMERKUNG": null, "PFLANZJAHR": "2004", "ENTNAHMEJAHR": null, "BAUMPATENSCHAFT": null, "ALTERSKLASSIZIERUNG": "jung", "OBJECTID": 31 }, "geometry": { "type": "Point", "coordinates": [ 15.412582903277883, 47.072354271112658 ] } },
{ "type": "Feature", "properties": { "NUMMER": 14150, "BAUMBEZEICHNUNG_BOTANISCH": "Aesculus hippocastanum", "BAUMBEZEICHNUNG_DEUTSCH": "Gemeine Roßkastanie", "BAUMTYP": "Laub", "BEMERKUNG": null, "PFLANZJAHR": null, "ENTNAHMEJAHR": null, "BAUMPATENSCHAFT": null, "ALTERSKLASSIZIERUNG": "alt", "OBJECTID": 33 }, "geometry": { "type": "Point", "coordinates": [ 15.422712934263549, 47.072078480267933 ] } },
{ "type": "Feature", "properties": { "NUMMER": 14148, "BAUMBEZEICHNUNG_BOTANISCH": "Aesculus hippocastanum", "BAUMBEZEICHNUNG_DEUTSCH": "Gemeine Roßkastanie", "BAUMTYP": "Laub", "BEMERKUNG": null, "PFLANZJAHR": null, "ENTNAHMEJAHR": null, "BAUMPATENSCHAFT": null, "ALTERSKLASSIZIERUNG": "alt", "OBJECTID": 34 }, "geometry": { "type": "Point", "coordinates": [ 15.422658934236289, 47.0721659312076 ] } },
{ "type": "Feature", "properties": { "NUMMER": 14131, "BAUMBEZEICHNUNG_BOTANISCH": "Tilia x europaea", "BAUMBEZEICHNUNG_DEUTSCH": "Holländische Linde", "BAUMTYP": "Laub", "BEMERKUNG": null, "PFLANZJAHR": null, "ENTNAHMEJAHR": null, "BAUMPATENSCHAFT": null, "ALTERSKLASSIZIERUNG": "mittel", "OBJECTID": 36 }, "geometry": { "type": "Point", "coordinates": [ 15.421988624849648, 47.072608923074213 ] } },
{ "type": "Feature", "properties": { "NUMMER": 31783, "BAUMBEZEICHNUNG_BOTANISCH": "Aesculus flava", "BAUMBEZEICHNUNG_DEUTSCH": "Gelbe Pavie", "BAUMTYP": "Laub", "BEMERKUNG": null, "PFLANZJAHR": "2014", "ENTNAHMEJAHR": null, "BAUMPATENSCHAFT": null, "ALTERSKLASSIZIERUNG": "jung", "OBJECTID": 37 }, "geometry": { "type": "Point", "coordinates": [ 15.426191934895618, 47.076556140251881 ] } },
{ "type": "Feature", "properties": { "NUMMER": 20062, "BAUMBEZEICHNUNG_BOTANISCH": "Tilia platyphyllos", "BAUMBEZEICHNUNG_DEUTSCH": "Sommerlinde", "BAUMTYP": "Laub", "BEMERKUNG": null, "PFLANZJAHR": "1997", "ENTNAHMEJAHR": null, "BAUMPATENSCHAFT": null, "ALTERSKLASSIZIERUNG": "jung", "OBJECTID": 38 }, "geometry": { "type": "Point", "coordinates": [ 15.418649280315721, 47.078243863442779 ] } },
{ "type": "Feature", "properties": { "NUMMER": 13046, "BAUMBEZEICHNUNG_BOTANISCH": "Tilia sp.", "BAUMBEZEICHNUNG_DEUTSCH": "Linde", "BAUMTYP": "Laub", "BEMERKUNG": null, "PFLANZJAHR": "1987", "ENTNAHMEJAHR": null, "BAUMPATENSCHAFT": null, "ALTERSKLASSIZIERUNG": "mittel", "OBJECTID": 39 }, "geometry": { "type": "Point", "coordinates": [ 15.418598671345809, 47.074491931150632 ] } },
{ "type": "Feature", "properties": { "NUMMER": 23841, "BAUMBEZEICHNUNG_BOTANISCH": "Acer platanoides", "BAUMBEZEICHNUNG_DEUTSCH": "Spitzahorn", "BAUMTYP": "Laub", "BEMERKUNG": null, "PFLANZJAHR": null, "ENTNAHMEJAHR": null, "BAUMPATENSCHAFT": null, "ALTERSKLASSIZIERUNG": "jung", "OBJECTID": 40 }, "geometry": { "type": "Point", "coordinates": [ 15.419940227090013, 47.071809040898586 ] } },
{ "type": "Feature", "properties": { "NUMMER": 13059, "BAUMBEZEICHNUNG_BOTANISCH": "Sophora japonica", "BAUMBEZEICHNUNG_DEUTSCH": "Schnurbaum", "BAUMTYP": "Laub", "BEMERKUNG": null, "PFLANZJAHR": null, "ENTNAHMEJAHR": null, "BAUMPATENSCHAFT": null, "ALTERSKLASSIZIERUNG": "alt", "OBJECTID": 41 }, "geometry": { "type": "Point", "coordinates": [ 15.418441739196197, 47.076006608785235 ] } },
{ "type": "Feature", "properties": { "NUMMER": 15024, "BAUMBEZEICHNUNG_BOTANISCH": "Tilia cordata", "BAUMBEZEICHNUNG_DEUTSCH": "Winterlinde", "BAUMTYP": "Laub", "BEMERKUNG": null, "PFLANZJAHR": "1986", "ENTNAHMEJAHR": null, "BAUMPATENSCHAFT": "Generaldirektor Dr. Rudolf Pieber, Steiermärkische Sparkasse", "ALTERSKLASSIZIERUNG": "mittel", "OBJECTID": 43 }, "geometry": { "type": "Point", "coordinates": [ 15.419009124488877, 47.07737956960441 ] } },
{ "type": "Feature", "properties": { "NUMMER": 3334, "BAUMBEZEICHNUNG_BOTANISCH": "Tilia platyphyllos", "BAUMBEZEICHNUNG_DEUTSCH": "Sommerlinde", "BAUMTYP": "Laub", "BEMERKUNG": "Stammkopfkappung, Kronenbereich größtenteils zurückgetrocknet, Ersatzpflanzung geplant", "PFLANZJAHR": null, "ENTNAHMEJAHR": null, "BAUMPATENSCHAFT": null, "ALTERSKLASSIZIERUNG": "mittel", "OBJECTID": 44 }, "geometry": { "type": "Point", "coordinates": [ 15.434494364572899, 47.075255554846827 ] } },
{ "type": "Feature", "properties": { "NUMMER": 3328, "BAUMBEZEICHNUNG_BOTANISCH": "Tilia platyphyllos", "BAUMBEZEICHNUNG_DEUTSCH": "Sommerlinde", "BAUMTYP": "Laub", "BEMERKUNG": null, "PFLANZJAHR": null, "ENTNAHMEJAHR": null, "BAUMPATENSCHAFT": null, "ALTERSKLASSIZIERUNG": "jung", "OBJECTID": 46 }, "geometry": { "type": "Point", "coordinates": [ 15.434318913210499, 47.075666353271643 ] } },
{ "type": "Feature", "properties": { "NUMMER": 7705, "BAUMBEZEICHNUNG_BOTANISCH": "Fraxinus excelsior", "BAUMBEZEICHNUNG_DEUTSCH": "Esche", "BAUMTYP": "Laub", "BEMERKUNG": null, "PFLANZJAHR": null, "ENTNAHMEJAHR": null, "BAUMPATENSCHAFT": null, "ALTERSKLASSIZIERUNG": "alt", "OBJECTID": 48 }, "geometry": { "type": "Point", "coordinates": [ 15.460746964820597, 47.080624610499953 ] } },
{ "type": "Feature", "properties": { "NUMMER": 7479, "BAUMBEZEICHNUNG_BOTANISCH": "Carpinus betulus", "BAUMBEZEICHNUNG_DEUTSCH": "Hain - oder Weißbuche", "BAUMTYP": "Laub", "BEMERKUNG": null, "PFLANZJAHR": null, "ENTNAHMEJAHR": null, "BAUMPATENSCHAFT": null, "ALTERSKLASSIZIERUNG": "mittel", "OBJECTID": 50 }, "geometry": { "type": "Point", "coordinates": [ 15.460405732127906, 47.085069754483243 ] } },
{ "type": "Feature", "properties": { "NUMMER": 11489, "BAUMBEZEICHNUNG_BOTANISCH": "Aesculus hippocastanum", "BAUMBEZEICHNUNG_DEUTSCH": "Gemeine Roßkastanie", "BAUMTYP": "Laub", "BEMERKUNG": null, "PFLANZJAHR": null, "ENTNAHMEJAHR": null, "BAUMPATENSCHAFT": null, "ALTERSKLASSIZIERUNG": "alt", "OBJECTID": 52 }, "geometry": { "type": "Point", "coordinates": [ 15.43446862031022, 47.077160258984748 ] } },
{ "type": "Feature", "properties": { "NUMMER": 3331, "BAUMBEZEICHNUNG_BOTANISCH": "Tilia platyphyllos", "BAUMBEZEICHNUNG_DEUTSCH": "Sommerlinde", "BAUMTYP": "Laub", "BEMERKUNG": null, "PFLANZJAHR": null, "ENTNAHMEJAHR": null, "BAUMPATENSCHAFT": null, "ALTERSKLASSIZIERUNG": "jung", "OBJECTID": 53 }, "geometry": { "type": "Point", "coordinates": [ 15.434410201493714, 47.075457793403245 ] } },
{ "type": "Feature", "properties": { "NUMMER": 10191, "BAUMBEZEICHNUNG_BOTANISCH": "Aesculus hippocastanum", "BAUMBEZEICHNUNG_DEUTSCH": "Gemeine Roßkastanie", "BAUMTYP": "Laub", "BEMERKUNG": null, "PFLANZJAHR": null, "ENTNAHMEJAHR": null, "BAUMPATENSCHAFT": null, "ALTERSKLASSIZIERUNG": "jung", "OBJECTID": 55 }, "geometry": { "type": "Point", "coordinates": [ 15.431585563162267, 47.074502418432118 ] } },
{ "type": "Feature", "properties": { "NUMMER": 4967, "BAUMBEZEICHNUNG_BOTANISCH": "Tilia cordata", "BAUMBEZEICHNUNG_DEUTSCH": "Winterlinde", "BAUMTYP": "Laub", "BEMERKUNG": null, "PFLANZJAHR": null, "ENTNAHMEJAHR": null, "BAUMPATENSCHAFT": null, "ALTERSKLASSIZIERUNG": "jung", "OBJECTID": 57 }, "geometry": { "type": "Point", "coordinates": [ 15.464302899616914, 47.053352649886001 ] } },
{ "type": "Feature", "properties": { "NUMMER": 31694, "BAUMBEZEICHNUNG_BOTANISCH": "Aesculus hippocastanum", "BAUMBEZEICHNUNG_DEUTSCH": "Gemeine Roßkastanie", "BAUMTYP": "Laub", "BEMERKUNG": null, "PFLANZJAHR": "2014", "ENTNAHMEJAHR": null, "BAUMPATENSCHAFT": null, "ALTERSKLASSIZIERUNG": "jung", "OBJECTID": 58 }, "geometry": { "type": "Point", "coordinates": [ 15.446697615456431, 47.072236784177484 ] } },
{ "type": "Feature", "properties": { "NUMMER": 2393, "BAUMBEZEICHNUNG_BOTANISCH": "Picea abies", "BAUMBEZEICHNUNG_DEUTSCH": "Rotfichte", "BAUMTYP": "Nadel", "BEMERKUNG": null, "PFLANZJAHR": null, "ENTNAHMEJAHR": null, "BAUMPATENSCHAFT": null, "ALTERSKLASSIZIERUNG": "mittel", "OBJECTID": 59 }, "geometry": { "type": "Point", "coordinates": [ 15.444145340718352, 47.076792801402028 ] } },
{ "type": "Feature", "properties": { "NUMMER": 1929, "BAUMBEZEICHNUNG_BOTANISCH": "Acer campestre", "BAUMBEZEICHNUNG_DEUTSCH": "Feldahorn", "BAUMTYP": "Laub", "BEMERKUNG": null, "PFLANZJAHR": null, "ENTNAHMEJAHR": null, "BAUMPATENSCHAFT": null, "ALTERSKLASSIZIERUNG": "mittel", "OBJECTID": 60 }, "geometry": { "type": "Point", "coordinates": [ 15.444918394005594, 47.074730770845719 ] } },
{ "type": "Feature", "properties": { "NUMMER": 1523, "BAUMBEZEICHNUNG_BOTANISCH": "Aesculus hippocastanum", "BAUMBEZEICHNUNG_DEUTSCH": "Gemeine Roßkastanie", "BAUMTYP": "Laub", "BEMERKUNG": null, "PFLANZJAHR": null, "ENTNAHMEJAHR": null, "BAUMPATENSCHAFT": null, "ALTERSKLASSIZIERUNG": "mittel", "OBJECTID": 61 }, "geometry": { "type": "Point", "coordinates": [ 15.445422259943697, 47.07253522269292 ] } },
{ "type": "Feature", "properties": { "NUMMER": 2750, "BAUMBEZEICHNUNG_BOTANISCH": "Acer pseudoplatanus", "BAUMBEZEICHNUNG_DEUTSCH": "Bergahorn", "BAUMTYP": "Laub", "BEMERKUNG": null, "PFLANZJAHR": null, "ENTNAHMEJAHR": null, "BAUMPATENSCHAFT": null, "ALTERSKLASSIZIERUNG": "alt", "OBJECTID": 62 }, "geometry": { "type": "Point", "coordinates": [ 15.443025171762489, 47.077701655545333 ] } },
{ "type": "Feature", "properties": { "NUMMER": 17261, "BAUMBEZEICHNUNG_BOTANISCH": "Aesculus hippocastanum", "BAUMBEZEICHNUNG_DEUTSCH": "Gemeine Roßkastanie", "BAUMTYP": "Laub", "BEMERKUNG": null, "PFLANZJAHR": null, "ENTNAHMEJAHR": null, "BAUMPATENSCHAFT": null, "ALTERSKLASSIZIERUNG": "mittel", "OBJECTID": 63 }, "geometry": { "type": "Point", "coordinates": [ 15.397724966874909, 47.06054076537032 ] } },
{ "type": "Feature", "properties": { "NUMMER": 3765, "BAUMBEZEICHNUNG_BOTANISCH": "Malus floribunda", "BAUMBEZEICHNUNG_DEUTSCH": "Zierapfel", "BAUMTYP": "Laub", "BEMERKUNG": null, "PFLANZJAHR": null, "ENTNAHMEJAHR": null, "BAUMPATENSCHAFT": null, "ALTERSKLASSIZIERUNG": "mittel", "OBJECTID": 64 }, "geometry": { "type": "Point", "coordinates": [ 15.434320324537966, 47.076382621532886 ] } },
{ "type": "Feature", "properties": { "NUMMER": 3476, "BAUMBEZEICHNUNG_BOTANISCH": "Sophora japonica", "BAUMBEZEICHNUNG_DEUTSCH": "Schnurbaum", "BAUMTYP": "Laub", "BEMERKUNG": null, "PFLANZJAHR": null, "ENTNAHMEJAHR": null, "BAUMPATENSCHAFT": null, "ALTERSKLASSIZIERUNG": "jung", "OBJECTID": 72 }, "geometry": { "type": "Point", "coordinates": [ 15.440159806847083, 47.067132378238654 ] } },
{ "type": "Feature", "properties": { "NUMMER": 23330, "BAUMBEZEICHNUNG_BOTANISCH": "Carpinus betulus", "BAUMBEZEICHNUNG_DEUTSCH": "Hain - oder Weißbuche", "BAUMTYP": "Laub", "BEMERKUNG": null, "PFLANZJAHR": null, "ENTNAHMEJAHR": null, "BAUMPATENSCHAFT": null, "ALTERSKLASSIZIERUNG": "mittel", "OBJECTID": 76 }, "geometry": { "type": "Point", "coordinates": [ 15.443835528787901, 47.055970048278773 ] } },
{ "type": "Feature", "properties": { "NUMMER": 3084, "BAUMBEZEICHNUNG_BOTANISCH": "Aesculus hippocastanum", "BAUMBEZEICHNUNG_DEUTSCH": "Gemeine Roßkastanie", "BAUMTYP": "Laub", "BEMERKUNG": null, "PFLANZJAHR": null, "ENTNAHMEJAHR": null, "BAUMPATENSCHAFT": null, "ALTERSKLASSIZIERUNG": "mittel", "OBJECTID": 80 }, "geometry": { "type": "Point", "coordinates": [ 15.4448051654698, 47.071447337300754 ] } },
{ "type": "Feature", "properties": { "NUMMER": 22011, "BAUMBEZEICHNUNG_BOTANISCH": "Acer platanoides", "BAUMBEZEICHNUNG_DEUTSCH": "Spitzahorn", "BAUMTYP": "Laub", "BEMERKUNG": null, "PFLANZJAHR": null, "ENTNAHMEJAHR": null, "BAUMPATENSCHAFT": null, "ALTERSKLASSIZIERUNG": "mittel", "OBJECTID": 82 }, "geometry": { "type": "Point", "coordinates": [ 15.414502706294236, 47.029444372260656 ] } },
{ "type": "Feature", "properties": { "NUMMER": 22022, "BAUMBEZEICHNUNG_BOTANISCH": "Acer pseudoplatanus", "BAUMBEZEICHNUNG_DEUTSCH": "Bergahorn", "BAUMTYP": "Laub", "BEMERKUNG": null, "PFLANZJAHR": null, "ENTNAHMEJAHR": null, "BAUMPATENSCHAFT": null, "ALTERSKLASSIZIERUNG": "mittel", "OBJECTID": 83 }, "geometry": { "type": "Point", "coordinates": [ 15.41557780750945, 47.029340718484129 ] } },
{ "type": "Feature", "properties": { "NUMMER": 23196, "BAUMBEZEICHNUNG_BOTANISCH": "Prunus sp.", "BAUMBEZEICHNUNG_DEUTSCH": "Kirsche", "BAUMTYP": "Laub", "BEMERKUNG": null, "PFLANZJAHR": null, "ENTNAHMEJAHR": null, "BAUMPATENSCHAFT": null, "ALTERSKLASSIZIERUNG": "jung", "OBJECTID": 84 }, "geometry": { "type": "Point", "coordinates": [ 15.444118605581769, 47.055741635181526 ] } },
{ "type": "Feature", "properties": { "NUMMER": 5566, "BAUMBEZEICHNUNG_BOTANISCH": "Tilia platyphyllos", "BAUMBEZEICHNUNG_DEUTSCH": "Sommerlinde", "BAUMTYP": "Laub", "BEMERKUNG": null, "PFLANZJAHR": null, "ENTNAHMEJAHR": null, "BAUMPATENSCHAFT": null, "ALTERSKLASSIZIERUNG": "jung", "OBJECTID": 85 }, "geometry": { "type": "Point", "coordinates": [ 15.458020482575161, 47.051552646591837 ] } },
{ "type": "Feature", "properties": { "NUMMER": 21983, "BAUMBEZEICHNUNG_BOTANISCH": "Quercus robur", "BAUMBEZEICHNUNG_DEUTSCH": "Stieleiche", "BAUMTYP": "Laub", "BEMERKUNG": null, "PFLANZJAHR": null, "ENTNAHMEJAHR": null, "BAUMPATENSCHAFT": null, "ALTERSKLASSIZIERUNG": "mittel", "OBJECTID": 86 }, "geometry": { "type": "Point", "coordinates": [ 15.46092271162396, 47.024999645398026 ] } },
{ "type": "Feature", "properties": { "NUMMER": 1973, "BAUMBEZEICHNUNG_BOTANISCH": "Taxus baccata", "BAUMBEZEICHNUNG_DEUTSCH": "Gemeine Eibe", "BAUMTYP": "Nadel", "BEMERKUNG": null, "PFLANZJAHR": null, "ENTNAHMEJAHR": null, "BAUMPATENSCHAFT": null, "ALTERSKLASSIZIERUNG": "mittel", "OBJECTID": 87 }, "geometry": { "type": "Point", "coordinates": [ 15.44539108092027, 47.074675827433374 ] } },
{ "type": "Feature", "properties": { "NUMMER": 1832, "BAUMBEZEICHNUNG_BOTANISCH": "Acer campestre", "BAUMBEZEICHNUNG_DEUTSCH": "Feldahorn", "BAUMTYP": "Laub", "BEMERKUNG": null, "PFLANZJAHR": null, "ENTNAHMEJAHR": null, "BAUMPATENSCHAFT": null, "ALTERSKLASSIZIERUNG": "mittel", "OBJECTID": 88 }, "geometry": { "type": "Point", "coordinates": [ 15.446135885116689, 47.073925376633326 ] } },
{ "type": "Feature", "properties": { "NUMMER": 2004, "BAUMBEZEICHNUNG_BOTANISCH": "Platanus x acerifolia", "BAUMBEZEICHNUNG_DEUTSCH": "Platane", "BAUMTYP": "Laub", "BEMERKUNG": null, "PFLANZJAHR": null, "ENTNAHMEJAHR": null, "BAUMPATENSCHAFT": null, "ALTERSKLASSIZIERUNG": "mittel", "OBJECTID": 89 }, "geometry": { "type": "Point", "coordinates": [ 15.445855426983199, 47.074961854324236 ] } },
{ "type": "Feature", "properties": { "NUMMER": 12845, "BAUMBEZEICHNUNG_BOTANISCH": "Sophora japonica", "BAUMBEZEICHNUNG_DEUTSCH": "Schnurbaum", "BAUMTYP": "Laub", "BEMERKUNG": null, "PFLANZJAHR": null, "ENTNAHMEJAHR": null, "BAUMPATENSCHAFT": null, "ALTERSKLASSIZIERUNG": "mittel", "OBJECTID": 92 }, "geometry": { "type": "Point", "coordinates": [ 15.421846578731476, 47.08491206752506 ] } },
{ "type": "Feature", "properties": { "NUMMER": 30199, "BAUMBEZEICHNUNG_BOTANISCH": "Fraxinus excelsior", "BAUMBEZEICHNUNG_DEUTSCH": "Esche", "BAUMTYP": "Laub", "BEMERKUNG": null, "PFLANZJAHR": null, "ENTNAHMEJAHR": null, "BAUMPATENSCHAFT": null, "ALTERSKLASSIZIERUNG": "jung", "OBJECTID": 93 }, "geometry": { "type": "Point", "coordinates": [ 15.436306040051122, 47.061552122934067 ] } },
{ "type": "Feature", "properties": { "NUMMER": 30200, "BAUMBEZEICHNUNG_BOTANISCH": "Populus tremula", "BAUMBEZEICHNUNG_DEUTSCH": "Zitterpappel", "BAUMTYP": "Laub", "BEMERKUNG": "Baum wurde beim Gewittersturm 29.07.2013 entwurzelt, drzt kein Ersatz wegen dichten Bestandes", "PFLANZJAHR": null, "ENTNAHMEJAHR": "2013", "BAUMPATENSCHAFT": null, "ALTERSKLASSIZIERUNG": "jung", "OBJECTID": 94 }, "geometry": { "type": "Point", "coordinates": [ 15.436337033382934, 47.061510954974366 ] } },
{ "type": "Feature", "properties": { "NUMMER": 27652, "BAUMBEZEICHNUNG_BOTANISCH": "Prunus serrulata 'Amanogawa'", "BAUMBEZEICHNUNG_DEUTSCH": "Japanische Säulenkirsche", "BAUMTYP": "Laub", "BEMERKUNG": null, "PFLANZJAHR": null, "ENTNAHMEJAHR": null, "BAUMPATENSCHAFT": null, "ALTERSKLASSIZIERUNG": "jung", "OBJECTID": 95 }, "geometry": { "type": "Point", "coordinates": [ 15.458851103832188, 47.068979433629941 ] } },
{ "type": "Feature", "properties": { "NUMMER": 30201, "BAUMBEZEICHNUNG_BOTANISCH": "Populus tremula", "BAUMBEZEICHNUNG_DEUTSCH": "Zitterpappel", "BAUMTYP": "Laub", "BEMERKUNG": null, "PFLANZJAHR": null, "ENTNAHMEJAHR": null, "BAUMPATENSCHAFT": null, "ALTERSKLASSIZIERUNG": "jung", "OBJECTID": 97 }, "geometry": { "type": "Point", "coordinates": [ 15.436237967478053, 47.061437350759228 ] } },
{ "type": "Feature", "properties": { "NUMMER": 30162, "BAUMBEZEICHNUNG_BOTANISCH": "Gleditsia triacanthos 'Inermis'", "BAUMBEZEICHNUNG_DEUTSCH": "dornenloser Christusdorn", "BAUMTYP": "Laub", "BEMERKUNG": null, "PFLANZJAHR": "2011", "ENTNAHMEJAHR": null, "BAUMPATENSCHAFT": null, "ALTERSKLASSIZIERUNG": "jung", "OBJECTID": 98 }, "geometry": { "type": "Point", "coordinates": [ 15.455681937186306, 47.070332019983567 ] } },
{ "type": "Feature", "properties": { "NUMMER": 30203, "BAUMBEZEICHNUNG_BOTANISCH": "Populus tremula", "BAUMBEZEICHNUNG_DEUTSCH": "Zitterpappel", "BAUMTYP": "Laub", "BEMERKUNG": null, "PFLANZJAHR": null, "ENTNAHMEJAHR": null, "BAUMPATENSCHAFT": null, "ALTERSKLASSIZIERUNG": "jung", "OBJECTID": 99 }, "geometry": { "type": "Point", "coordinates": [ 15.436261143832096, 47.061301875617787 ] } },
{ "type": "Feature", "properties": { "NUMMER": 30204, "BAUMBEZEICHNUNG_BOTANISCH": "Populus tremula", "BAUMBEZEICHNUNG_DEUTSCH": "Zitterpappel", "BAUMTYP": "Laub", "BEMERKUNG": null, "PFLANZJAHR": null, "ENTNAHMEJAHR": null, "BAUMPATENSCHAFT": null, "ALTERSKLASSIZIERUNG": "jung", "OBJECTID": 100 }, "geometry": { "type": "Point", "coordinates": [ 15.43617328124426, 47.061307611280562 ] } },
{ "type": "Feature", "properties": { "NUMMER": 9834, "BAUMBEZEICHNUNG_BOTANISCH": "Carpinus betulus", "BAUMBEZEICHNUNG_DEUTSCH": "Hain - oder Weißbuche", "BAUMTYP": "Laub", "BEMERKUNG": null, "PFLANZJAHR": null, "ENTNAHMEJAHR": null, "BAUMPATENSCHAFT": null, "ALTERSKLASSIZIERUNG": "mittel", "OBJECTID": 204 }, "geometry": { "type": "Point", "coordinates": [ 15.44463784261991, 47.088980548444468 ] } },
{ "type": "Feature", "properties": { "NUMMER": 9842, "BAUMBEZEICHNUNG_BOTANISCH": "Carpinus betulus", "BAUMBEZEICHNUNG_DEUTSCH": "Hain - oder Weißbuche", "BAUMTYP": "Laub", "BEMERKUNG": null, "PFLANZJAHR": null, "ENTNAHMEJAHR": null, "BAUMPATENSCHAFT": null, "ALTERSKLASSIZIERUNG": "mittel", "OBJECTID": 205 }, "geometry": { "type": "Point", "coordinates": [ 15.44495906419932, 47.089205532899832 ] } },
{ "type": "Feature", "properties": { "NUMMER": 23705, "BAUMBEZEICHNUNG_BOTANISCH": "Alnus glutinosa", "BAUMBEZEICHNUNG_DEUTSCH": "Schwarzerle", "BAUMTYP": "Laub", "BEMERKUNG": null, "PFLANZJAHR": "2002", "ENTNAHMEJAHR": null, "BAUMPATENSCHAFT": null, "ALTERSKLASSIZIERUNG": "jung", "OBJECTID": 206 }, "geometry": { "type": "Point", "coordinates": [ 15.445921561404747, 47.035413254460799 ] } },
{ "type": "Feature", "properties": { "NUMMER": 24660, "BAUMBEZEICHNUNG_BOTANISCH": "Koelreuteria paniculata", "BAUMBEZEICHNUNG_DEUTSCH": "Blasenbaum", "BAUMTYP": "Laub", "BEMERKUNG": null, "PFLANZJAHR": "2005", "ENTNAHMEJAHR": null, "BAUMPATENSCHAFT": null, "ALTERSKLASSIZIERUNG": "jung", "OBJECTID": 207 }, "geometry": { "type": "Point", "coordinates": [ 15.441096297268251, 47.073922226502461 ] } },
{ "type": "Feature", "properties": { "NUMMER": 9858, "BAUMBEZEICHNUNG_BOTANISCH": "Quercus petraea", "BAUMBEZEICHNUNG_DEUTSCH": "Traubeneiche", "BAUMTYP": "Laub", "BEMERKUNG": null, "PFLANZJAHR": null, "ENTNAHMEJAHR": null, "BAUMPATENSCHAFT": null, "ALTERSKLASSIZIERUNG": "alt", "OBJECTID": 208 }, "geometry": { "type": "Point", "coordinates": [ 15.445154190632389, 47.089752320031614 ] } },
{ "type": "Feature", "properties": { "NUMMER": 24497, "BAUMBEZEICHNUNG_BOTANISCH": "Salix caprea", "BAUMBEZEICHNUNG_DEUTSCH": "Salweide", "BAUMTYP": "Laub", "BEMERKUNG": null, "PFLANZJAHR": null, "ENTNAHMEJAHR": null, "BAUMPATENSCHAFT": null, "ALTERSKLASSIZIERUNG": "mittel", "OBJECTID": 210 }, "geometry": { "type": "Point", "coordinates": [ 15.421256554892537, 47.115597358056959 ] } },
{ "type": "Feature", "properties": { "NUMMER": 22670, "BAUMBEZEICHNUNG_BOTANISCH": "Fraxinus excelsior", "BAUMBEZEICHNUNG_DEUTSCH": "Esche", "BAUMTYP": "Laub", "BEMERKUNG": null, "PFLANZJAHR": null, "ENTNAHMEJAHR": null, "BAUMPATENSCHAFT": null, "ALTERSKLASSIZIERUNG": "mittel", "OBJECTID": 211 }, "geometry": { "type": "Point", "coordinates": [ 15.398403714727385, 47.02353427515105 ] } },
{ "type": "Feature", "properties": { "NUMMER": 16501, "BAUMBEZEICHNUNG_BOTANISCH": "Malus 'Kulturapfel'", "BAUMBEZEICHNUNG_DEUTSCH": "Apfelbaum", "BAUMTYP": "Laub", "BEMERKUNG": null, "PFLANZJAHR": null, "ENTNAHMEJAHR": null, "BAUMPATENSCHAFT": null, "ALTERSKLASSIZIERUNG": "mittel", "OBJECTID": 212 }, "geometry": { "type": "Point", "coordinates": [ 15.400287947777095, 47.037835915242226 ] } },
{ "type": "Feature", "properties": { "NUMMER": 24793, "BAUMBEZEICHNUNG_BOTANISCH": "Liriodendron tulipifera", "BAUMBEZEICHNUNG_DEUTSCH": "Tulpenbaum", "BAUMTYP": "Laub", "BEMERKUNG": null, "PFLANZJAHR": "2005", "ENTNAHMEJAHR": null, "BAUMPATENSCHAFT": null, "ALTERSKLASSIZIERUNG": "jung", "OBJECTID": 213 }, "geometry": { "type": "Point", "coordinates": [ 15.408984396513457, 47.077804007534198 ] } },
{ "type": "Feature", "properties": { "NUMMER": 10644, "BAUMBEZEICHNUNG_BOTANISCH": "Acer rubrum", "BAUMBEZEICHNUNG_DEUTSCH": "Rotahorn", "BAUMTYP": "Laub", "BEMERKUNG": null, "PFLANZJAHR": null, "ENTNAHMEJAHR": null, "BAUMPATENSCHAFT": null, "ALTERSKLASSIZIERUNG": "mittel", "OBJECTID": 214 }, "geometry": { "type": "Point", "coordinates": [ 15.429967621595996, 47.091334641925933 ] } },
{ "type": "Feature", "properties": { "NUMMER": 3076, "BAUMBEZEICHNUNG_BOTANISCH": "Aesculus hippocastanum", "BAUMBEZEICHNUNG_DEUTSCH": "Gemeine Roßkastanie", "BAUMTYP": "Laub", "BEMERKUNG": null, "PFLANZJAHR": null, "ENTNAHMEJAHR": null, "BAUMPATENSCHAFT": null, "ALTERSKLASSIZIERUNG": "mittel", "OBJECTID": 215 }, "geometry": { "type": "Point", "coordinates": [ 15.44493132394069, 47.071708735559532 ] } },
{ "type": "Feature", "properties": { "NUMMER": 29552, "BAUMBEZEICHNUNG_BOTANISCH": "Tilia cordata", "BAUMBEZEICHNUNG_DEUTSCH": "Winterlinde", "BAUMTYP": "Laub", "BEMERKUNG": null, "PFLANZJAHR": null, "ENTNAHMEJAHR": null, "BAUMPATENSCHAFT": null, "ALTERSKLASSIZIERUNG": "alt", "OBJECTID": 216 }, "geometry": { "type": "Point", "coordinates": [ 15.37659176070744, 47.065672424519072 ] } },
{ "type": "Feature", "properties": { "NUMMER": 29563, "BAUMBEZEICHNUNG_BOTANISCH": "Acer platanoides", "BAUMBEZEICHNUNG_DEUTSCH": "Spitzahorn", "BAUMTYP": "Laub", "BEMERKUNG": null, "PFLANZJAHR": null, "ENTNAHMEJAHR": null, "BAUMPATENSCHAFT": null, "ALTERSKLASSIZIERUNG": "jung", "OBJECTID": 217 }, "geometry": { "type": "Point", "coordinates": [ 15.427846101139487, 47.030089424934111 ] } },
{ "type": "Feature", "properties": { "NUMMER": 29564, "BAUMBEZEICHNUNG_BOTANISCH": "Acer platanoides", "BAUMBEZEICHNUNG_DEUTSCH": "Spitzahorn", "BAUMTYP": "Laub", "BEMERKUNG": null, "PFLANZJAHR": null, "ENTNAHMEJAHR": null, "BAUMPATENSCHAFT": null, "ALTERSKLASSIZIERUNG": "jung", "OBJECTID": 218 }, "geometry": { "type": "Point", "coordinates": [ 15.428264032526537, 47.029972550837954 ] } },
{ "type": "Feature", "properties": { "NUMMER": 29565, "BAUMBEZEICHNUNG_BOTANISCH": "Acer platanoides", "BAUMBEZEICHNUNG_DEUTSCH": "Spitzahorn", "BAUMTYP": "Laub", "BEMERKUNG": null, "PFLANZJAHR": null, "ENTNAHMEJAHR": null, "BAUMPATENSCHAFT": null, "ALTERSKLASSIZIERUNG": "jung", "OBJECTID": 219 }, "geometry": { "type": "Point", "coordinates": [ 15.428424932941621, 47.029926226897395 ] } },
{ "type": "Feature", "properties": { "NUMMER": 29566, "BAUMBEZEICHNUNG_BOTANISCH": "Acer platanoides", "BAUMBEZEICHNUNG_DEUTSCH": "Spitzahorn", "BAUMTYP": "Laub", "BEMERKUNG": null, "PFLANZJAHR": null, "ENTNAHMEJAHR": null, "BAUMPATENSCHAFT": null, "ALTERSKLASSIZIERUNG": "jung", "OBJECTID": 220 }, "geometry": { "type": "Point", "coordinates": [ 15.428555483771886, 47.02992488243472 ] } },
{ "type": "Feature", "properties": { "NUMMER": 29567, "BAUMBEZEICHNUNG_BOTANISCH": "Acer platanoides", "BAUMBEZEICHNUNG_DEUTSCH": "Spitzahorn", "BAUMTYP": "Laub", "BEMERKUNG": null, "PFLANZJAHR": null, "ENTNAHMEJAHR": null, "BAUMPATENSCHAFT": null, "ALTERSKLASSIZIERUNG": "jung", "OBJECTID": 221 }, "geometry": { "type": "Point", "coordinates": [ 15.428690610007019, 47.029961652192945 ] } },
{ "type": "Feature", "properties": { "NUMMER": 29568, "BAUMBEZEICHNUNG_BOTANISCH": "Acer platanoides", "BAUMBEZEICHNUNG_DEUTSCH": "Spitzahorn", "BAUMTYP": "Laub", "BEMERKUNG": null, "PFLANZJAHR": null, "ENTNAHMEJAHR": null, "BAUMPATENSCHAFT": null, "ALTERSKLASSIZIERUNG": "jung", "OBJECTID": 222 }, "geometry": { "type": "Point", "coordinates": [ 15.428828779877536, 47.029818759524971 ] } },
{ "type": "Feature", "properties": { "NUMMER": 29569, "BAUMBEZEICHNUNG_BOTANISCH": "Acer platanoides", "BAUMBEZEICHNUNG_DEUTSCH": "Spitzahorn", "BAUMTYP": "Laub", "BEMERKUNG": null, "PFLANZJAHR": null, "ENTNAHMEJAHR": null, "BAUMPATENSCHAFT": null, "ALTERSKLASSIZIERUNG": "jung", "OBJECTID": 223 }, "geometry": { "type": "Point", "coordinates": [ 15.428627554631488, 47.029882614377179 ] } },
{ "type": "Feature", "properties": { "NUMMER": 29570, "BAUMBEZEICHNUNG_BOTANISCH": "Acer platanoides", "BAUMBEZEICHNUNG_DEUTSCH": "Spitzahorn", "BAUMTYP": "Laub", "BEMERKUNG": null, "PFLANZJAHR": null, "ENTNAHMEJAHR": null, "BAUMPATENSCHAFT": null, "ALTERSKLASSIZIERUNG": "jung", "OBJECTID": 224 }, "geometry": { "type": "Point", "coordinates": [ 15.428426224000169, 47.029850079104804 ] } },
{ "type": "Feature", "properties": { "NUMMER": 29571, "BAUMBEZEICHNUNG_BOTANISCH": "Acer platanoides", "BAUMBEZEICHNUNG_DEUTSCH": "Spitzahorn", "BAUMTYP": "Laub", "BEMERKUNG": null, "PFLANZJAHR": null, "ENTNAHMEJAHR": null, "BAUMPATENSCHAFT": null, "ALTERSKLASSIZIERUNG": "jung", "OBJECTID": 225 }, "geometry": { "type": "Point", "coordinates": [ 15.428005558873268, 47.029922901934889 ] } },
{ "type": "Feature", "properties": { "NUMMER": 29572, "BAUMBEZEICHNUNG_BOTANISCH": "Acer platanoides", "BAUMBEZEICHNUNG_DEUTSCH": "Spitzahorn", "BAUMTYP": "Laub", "BEMERKUNG": null, "PFLANZJAHR": null, "ENTNAHMEJAHR": null, "BAUMPATENSCHAFT": null, "ALTERSKLASSIZIERUNG": "jung", "OBJECTID": 226 }, "geometry": { "type": "Point", "coordinates": [ 15.428259816886909, 47.029810680036078 ] } },
{ "type": "Feature", "properties": { "NUMMER": 29573, "BAUMBEZEICHNUNG_BOTANISCH": "Acer platanoides", "BAUMBEZEICHNUNG_DEUTSCH": "Spitzahorn", "BAUMTYP": "Laub", "BEMERKUNG": null, "PFLANZJAHR": null, "ENTNAHMEJAHR": null, "BAUMPATENSCHAFT": null, "ALTERSKLASSIZIERUNG": "jung", "OBJECTID": 227 }, "geometry": { "type": "Point", "coordinates": [ 15.42840691592939, 47.029757107280268 ] } },
{ "type": "Feature", "properties": { "NUMMER": 29574, "BAUMBEZEICHNUNG_BOTANISCH": "Acer platanoides", "BAUMBEZEICHNUNG_DEUTSCH": "Spitzahorn", "BAUMTYP": "Laub", "BEMERKUNG": null, "PFLANZJAHR": null, "ENTNAHMEJAHR": null, "BAUMPATENSCHAFT": null, "ALTERSKLASSIZIERUNG": "jung", "OBJECTID": 228 }, "geometry": { "type": "Point", "coordinates": [ 15.428554055021914, 47.02970115454562 ] } },
{ "type": "Feature", "properties": { "NUMMER": 29575, "BAUMBEZEICHNUNG_BOTANISCH": "Acer platanoides", "BAUMBEZEICHNUNG_DEUTSCH": "Spitzahorn", "BAUMTYP": "Laub", "BEMERKUNG": null, "PFLANZJAHR": null, "ENTNAHMEJAHR": null, "BAUMPATENSCHAFT": null, "ALTERSKLASSIZIERUNG": "jung", "OBJECTID": 229 }, "geometry": { "type": "Point", "coordinates": [ 15.428629310601517, 47.029779099935261 ] } },
{ "type": "Feature", "properties": { "NUMMER": 29576, "BAUMBEZEICHNUNG_BOTANISCH": "Acer platanoides", "BAUMBEZEICHNUNG_DEUTSCH": "Spitzahorn", "BAUMTYP": "Laub", "BEMERKUNG": null, "PFLANZJAHR": null, "ENTNAHMEJAHR": null, "BAUMPATENSCHAFT": null, "ALTERSKLASSIZIERUNG": "jung", "OBJECTID": 230 }, "geometry": { "type": "Point", "coordinates": [ 15.428692338496264, 47.029756989282966 ] } },
{ "type": "Feature", "properties": { "NUMMER": 29557, "BAUMBEZEICHNUNG_BOTANISCH": "Liriodendron tulipifera 'Fastigiata'", "BAUMBEZEICHNUNG_DEUTSCH": "Säulentulpenbaum", "BAUMTYP": "Laub", "BEMERKUNG": null, "PFLANZJAHR": null, "ENTNAHMEJAHR": null, "BAUMPATENSCHAFT": null, "ALTERSKLASSIZIERUNG": "jung", "OBJECTID": 231 }, "geometry": { "type": "Point", "coordinates": [ 15.432069369955254, 47.027126311745903 ] } },
{ "type": "Feature", "properties": { "NUMMER": 29558, "BAUMBEZEICHNUNG_BOTANISCH": "Liriodendron tulipifera 'Fastigiata'", "BAUMBEZEICHNUNG_DEUTSCH": "Säulentulpenbaum", "BAUMTYP": "Laub", "BEMERKUNG": null, "PFLANZJAHR": null, "ENTNAHMEJAHR": null, "BAUMPATENSCHAFT": null, "ALTERSKLASSIZIERUNG": "jung", "OBJECTID": 232 }, "geometry": { "type": "Point", "coordinates": [ 15.43203633709774, 47.027188384415041 ] } },
{ "type": "Feature", "properties": { "NUMMER": 29559, "BAUMBEZEICHNUNG_BOTANISCH": "Liriodendron tulipifera 'Fastigiata'", "BAUMBEZEICHNUNG_DEUTSCH": "Säulentulpenbaum", "BAUMTYP": "Laub", "BEMERKUNG": null, "PFLANZJAHR": null, "ENTNAHMEJAHR": null, "BAUMPATENSCHAFT": null, "ALTERSKLASSIZIERUNG": "jung", "OBJECTID": 233 }, "geometry": { "type": "Point", "coordinates": [ 15.432003542868113, 47.02723624307562 ] } },
{ "type": "Feature", "properties": { "NUMMER": 29560, "BAUMBEZEICHNUNG_BOTANISCH": "Liriodendron tulipifera 'Fastigiata'", "BAUMBEZEICHNUNG_DEUTSCH": "Säulentulpenbaum", "BAUMTYP": "Laub", "BEMERKUNG": null, "PFLANZJAHR": null, "ENTNAHMEJAHR": null, "BAUMPATENSCHAFT": null, "ALTERSKLASSIZIERUNG": "jung", "OBJECTID": 234 }, "geometry": { "type": "Point", "coordinates": [ 15.431980434824656, 47.027278709173835 ] } },
{ "type": "Feature", "properties": { "NUMMER": 29561, "BAUMBEZEICHNUNG_BOTANISCH": "Liriodendron tulipifera 'Fastigiata'", "BAUMBEZEICHNUNG_DEUTSCH": "Säulentulpenbaum", "BAUMTYP": "Laub", "BEMERKUNG": null, "PFLANZJAHR": null, "ENTNAHMEJAHR": null, "BAUMPATENSCHAFT": null, "ALTERSKLASSIZIERUNG": "jung", "OBJECTID": 235 }, "geometry": { "type": "Point", "coordinates": [ 15.431957291121842, 47.027323362597926 ] } },
{ "type": "Feature", "properties": { "NUMMER": 29589, "BAUMBEZEICHNUNG_BOTANISCH": "Koelreuteria paniculata 'Fastigiata'", "BAUMBEZEICHNUNG_DEUTSCH": "Säulenblasenbaum", "BAUMTYP": "Laub", "BEMERKUNG": null, "PFLANZJAHR": null, "ENTNAHMEJAHR": null, "BAUMPATENSCHAFT": null, "ALTERSKLASSIZIERUNG": "jung", "OBJECTID": 236 }, "geometry": { "type": "Point", "coordinates": [ 15.431623167219746, 47.031310716177714 ] } },
{ "type": "Feature", "properties": { "NUMMER": 29590, "BAUMBEZEICHNUNG_BOTANISCH": "Koelreuteria paniculata 'Fastigiata'", "BAUMBEZEICHNUNG_DEUTSCH": "Säulenblasenbaum", "BAUMTYP": "Laub", "BEMERKUNG": null, "PFLANZJAHR": null, "ENTNAHMEJAHR": null, "BAUMPATENSCHAFT": null, "ALTERSKLASSIZIERUNG": "jung", "OBJECTID": 237 }, "geometry": { "type": "Point", "coordinates": [ 15.431623935426305, 47.031359932696027 ] } },
{ "type": "Feature", "properties": { "NUMMER": 29577, "BAUMBEZEICHNUNG_BOTANISCH": "Acer platanoides", "BAUMBEZEICHNUNG_DEUTSCH": "Spitzahorn", "BAUMTYP": "Laub", "BEMERKUNG": null, "PFLANZJAHR": null, "ENTNAHMEJAHR": null, "BAUMPATENSCHAFT": null, "ALTERSKLASSIZIERUNG": "jung", "OBJECTID": 238 }, "geometry": { "type": "Point", "coordinates": [ 15.428716775279735, 47.029650084402796 ] } },
{ "type": "Feature", "properties": { "NUMMER": 29578, "BAUMBEZEICHNUNG_BOTANISCH": "Acer platanoides", "BAUMBEZEICHNUNG_DEUTSCH": "Spitzahorn", "BAUMTYP": "Laub", "BEMERKUNG": null, "PFLANZJAHR": null, "ENTNAHMEJAHR": null, "BAUMPATENSCHAFT": null, "ALTERSKLASSIZIERUNG": "jung", "OBJECTID": 239 }, "geometry": { "type": "Point", "coordinates": [ 15.42890974821832, 47.029662323843041 ] } },
{ "type": "Feature", "properties": { "NUMMER": 29579, "BAUMBEZEICHNUNG_BOTANISCH": "Acer platanoides", "BAUMBEZEICHNUNG_DEUTSCH": "Spitzahorn", "BAUMTYP": "Laub", "BEMERKUNG": null, "PFLANZJAHR": null, "ENTNAHMEJAHR": null, "BAUMPATENSCHAFT": null, "ALTERSKLASSIZIERUNG": "jung", "OBJECTID": 240 }, "geometry": { "type": "Point", "coordinates": [ 15.428908834631534, 47.029613527109113 ] } },
{ "type": "Feature", "properties": { "NUMMER": 29580, "BAUMBEZEICHNUNG_BOTANISCH": "Acer platanoides", "BAUMBEZEICHNUNG_DEUTSCH": "Spitzahorn", "BAUMTYP": "Laub", "BEMERKUNG": null, "PFLANZJAHR": null, "ENTNAHMEJAHR": null, "BAUMPATENSCHAFT": null, "ALTERSKLASSIZIERUNG": "jung", "OBJECTID": 241 }, "geometry": { "type": "Point", "coordinates": [ 15.428966197964598, 47.029617551707283 ] } },
{ "type": "Feature", "properties": { "NUMMER": 29581, "BAUMBEZEICHNUNG_BOTANISCH": "Acer platanoides", "BAUMBEZEICHNUNG_DEUTSCH": "Spitzahorn", "BAUMTYP": "Laub", "BEMERKUNG": null, "PFLANZJAHR": null, "ENTNAHMEJAHR": null, "BAUMPATENSCHAFT": null, "ALTERSKLASSIZIERUNG": "jung", "OBJECTID": 242 }, "geometry": { "type": "Point", "coordinates": [ 15.429821412146239, 47.029370857272013 ] } },
{ "type": "Feature", "properties": { "NUMMER": 29582, "BAUMBEZEICHNUNG_BOTANISCH": "Koelreuteria paniculata", "BAUMBEZEICHNUNG_DEUTSCH": "Blasenbaum", "BAUMTYP": "Laub", "BEMERKUNG": null, "PFLANZJAHR": null, "ENTNAHMEJAHR": null, "BAUMPATENSCHAFT": null, "ALTERSKLASSIZIERUNG": "jung", "OBJECTID": 243 }, "geometry": { "type": "Point", "coordinates": [ 15.428249511478507, 47.030521017059606 ] } },
{ "type": "Feature", "properties": { "NUMMER": 29583, "BAUMBEZEICHNUNG_BOTANISCH": "Koelreuteria paniculata", "BAUMBEZEICHNUNG_DEUTSCH": "Blasenbaum", "BAUMTYP": "Laub", "BEMERKUNG": null, "PFLANZJAHR": null, "ENTNAHMEJAHR": null, "BAUMPATENSCHAFT": null, "ALTERSKLASSIZIERUNG": "jung", "OBJECTID": 244 }, "geometry": { "type": "Point", "coordinates": [ 15.428405983552231, 47.030530586950015 ] } },
{ "type": "Feature", "properties": { "NUMMER": 29584, "BAUMBEZEICHNUNG_BOTANISCH": "Koelreuteria paniculata", "BAUMBEZEICHNUNG_DEUTSCH": "Blasenbaum", "BAUMTYP": "Laub", "BEMERKUNG": null, "PFLANZJAHR": null, "ENTNAHMEJAHR": null, "BAUMPATENSCHAFT": null, "ALTERSKLASSIZIERUNG": "jung", "OBJECTID": 245 }, "geometry": { "type": "Point", "coordinates": [ 15.428052657702381, 47.030224340964722 ] } },
{ "type": "Feature", "properties": { "NUMMER": 29585, "BAUMBEZEICHNUNG_BOTANISCH": "Koelreuteria paniculata", "BAUMBEZEICHNUNG_DEUTSCH": "Blasenbaum", "BAUMTYP": "Laub", "BEMERKUNG": null, "PFLANZJAHR": null, "ENTNAHMEJAHR": null, "BAUMPATENSCHAFT": null, "ALTERSKLASSIZIERUNG": "jung", "OBJECTID": 246 }, "geometry": { "type": "Point", "coordinates": [ 15.428565894849932, 47.030132021654872 ] } },
{ "type": "Feature", "properties": { "NUMMER": 29586, "BAUMBEZEICHNUNG_BOTANISCH": "Quercus palustris", "BAUMBEZEICHNUNG_DEUTSCH": "Sumpf - Eiche", "BAUMTYP": "Laub", "BEMERKUNG": null, "PFLANZJAHR": null, "ENTNAHMEJAHR": null, "BAUMPATENSCHAFT": null, "ALTERSKLASSIZIERUNG": "jung", "OBJECTID": 247 }, "geometry": { "type": "Point", "coordinates": [ 15.427954179330031, 47.030284249134567 ] } },
{ "type": "Feature", "properties": { "NUMMER": 29587, "BAUMBEZEICHNUNG_BOTANISCH": "Koelreuteria paniculata 'Fastigiata'", "BAUMBEZEICHNUNG_DEUTSCH": "Säulenblasenbaum", "BAUMTYP": "Laub", "BEMERKUNG": null, "PFLANZJAHR": null, "ENTNAHMEJAHR": null, "BAUMPATENSCHAFT": null, "ALTERSKLASSIZIERUNG": "jung", "OBJECTID": 248 }, "geometry": { "type": "Point", "coordinates": [ 15.429159211477884, 47.030243819956205 ] } },
{ "type": "Feature", "properties": { "NUMMER": 29588, "BAUMBEZEICHNUNG_BOTANISCH": "Koelreuteria paniculata 'Fastigiata'", "BAUMBEZEICHNUNG_DEUTSCH": "Säulenblasenbaum", "BAUMTYP": "Laub", "BEMERKUNG": null, "PFLANZJAHR": null, "ENTNAHMEJAHR": null, "BAUMPATENSCHAFT": null, "ALTERSKLASSIZIERUNG": "jung", "OBJECTID": 249 }, "geometry": { "type": "Point", "coordinates": [ 15.429203198986837, 47.030215608852416 ] } },
{ "type": "Feature", "properties": { "NUMMER": 29553, "BAUMBEZEICHNUNG_BOTANISCH": "Liriodendron tulipifera 'Fastigiata'", "BAUMBEZEICHNUNG_DEUTSCH": "Säulentulpenbaum", "BAUMTYP": "Laub", "BEMERKUNG": null, "PFLANZJAHR": null, "ENTNAHMEJAHR": null, "BAUMPATENSCHAFT": null, "ALTERSKLASSIZIERUNG": "jung", "OBJECTID": 250 }, "geometry": { "type": "Point", "coordinates": [ 15.432194886711587, 47.026891091730782 ] } },
{ "type": "Feature", "properties": { "NUMMER": 29562, "BAUMBEZEICHNUNG_BOTANISCH": "Liriodendron tulipifera 'Fastigiata'", "BAUMBEZEICHNUNG_DEUTSCH": "Säulentulpenbaum", "BAUMTYP": "Laub", "BEMERKUNG": null, "PFLANZJAHR": null, "ENTNAHMEJAHR": null, "BAUMPATENSCHAFT": null, "ALTERSKLASSIZIERUNG": "jung", "OBJECTID": 251 }, "geometry": { "type": "Point", "coordinates": [ 15.431939055124122, 47.027361493729991 ] } },
{ "type": "Feature", "properties": { "NUMMER": 29554, "BAUMBEZEICHNUNG_BOTANISCH": "Liriodendron tulipifera 'Fastigiata'", "BAUMBEZEICHNUNG_DEUTSCH": "Säulentulpenbaum", "BAUMTYP": "Laub", "BEMERKUNG": null, "PFLANZJAHR": null, "ENTNAHMEJAHR": null, "BAUMPATENSCHAFT": null, "ALTERSKLASSIZIERUNG": "jung", "OBJECTID": 252 }, "geometry": { "type": "Point", "coordinates": [ 15.432162000517527, 47.026944416945113 ] } },
{ "type": "Feature", "properties": { "NUMMER": 29555, "BAUMBEZEICHNUNG_BOTANISCH": "Liriodendron tulipifera 'Fastigiata'", "BAUMBEZEICHNUNG_DEUTSCH": "Säulentulpenbaum", "BAUMTYP": "Laub", "BEMERKUNG": null, "PFLANZJAHR": null, "ENTNAHMEJAHR": null, "BAUMPATENSCHAFT": null, "ALTERSKLASSIZIERUNG": "jung", "OBJECTID": 253 }, "geometry": { "type": "Point", "coordinates": [ 15.432133709429769, 47.027009807594602 ] } },
{ "type": "Feature", "properties": { "NUMMER": 29556, "BAUMBEZEICHNUNG_BOTANISCH": "Liriodendron tulipifera 'Fastigiata'", "BAUMBEZEICHNUNG_DEUTSCH": "Säulentulpenbaum", "BAUMTYP": "Laub", "BEMERKUNG": null, "PFLANZJAHR": null, "ENTNAHMEJAHR": null, "BAUMPATENSCHAFT": null, "ALTERSKLASSIZIERUNG": "jung", "OBJECTID": 254 }, "geometry": { "type": "Point", "coordinates": [ 15.432104021916912, 47.027063158941928 ] } },
{ "type": "Feature", "properties": { "NUMMER": 29591, "BAUMBEZEICHNUNG_BOTANISCH": "Koelreuteria paniculata 'Fastigiata'", "BAUMBEZEICHNUNG_DEUTSCH": "Säulenblasenbaum", "BAUMTYP": "Laub", "BEMERKUNG": null, "PFLANZJAHR": null, "ENTNAHMEJAHR": null, "BAUMPATENSCHAFT": null, "ALTERSKLASSIZIERUNG": "jung", "OBJECTID": 255 }, "geometry": { "type": "Point", "coordinates": [ 15.431623030190291, 47.031413510318302 ] } },
{ "type": "Feature", "properties": { "NUMMER": 29592, "BAUMBEZEICHNUNG_BOTANISCH": "Koelreuteria paniculata 'Fastigiata'", "BAUMBEZEICHNUNG_DEUTSCH": "Säulenblasenbaum", "BAUMTYP": "Laub", "BEMERKUNG": null, "PFLANZJAHR": null, "ENTNAHMEJAHR": null, "BAUMPATENSCHAFT": null, "ALTERSKLASSIZIERUNG": "jung", "OBJECTID": 256 }, "geometry": { "type": "Point", "coordinates": [ 15.431625434885181, 47.031460553050387 ] } },
{ "type": "Feature", "properties": { "NUMMER": 30104, "BAUMBEZEICHNUNG_BOTANISCH": "Quercus robur", "BAUMBEZEICHNUNG_DEUTSCH": "Stieleiche", "BAUMTYP": "Laub", "BEMERKUNG": null, "PFLANZJAHR": null, "ENTNAHMEJAHR": null, "BAUMPATENSCHAFT": null, "ALTERSKLASSIZIERUNG": "alt", "OBJECTID": 101 }, "geometry": { "type": "Point", "coordinates": [ 15.430698785638143, 47.036339902779979 ] } },
{ "type": "Feature", "properties": { "NUMMER": 30205, "BAUMBEZEICHNUNG_BOTANISCH": "Fraxinus excelsior", "BAUMBEZEICHNUNG_DEUTSCH": "Esche", "BAUMTYP": "Laub", "BEMERKUNG": null, "PFLANZJAHR": null, "ENTNAHMEJAHR": null, "BAUMPATENSCHAFT": null, "ALTERSKLASSIZIERUNG": "jung", "OBJECTID": 102 }, "geometry": { "type": "Point", "coordinates": [ 15.436168513800391, 47.06134255831757 ] } },
{ "type": "Feature", "properties": { "NUMMER": 29649, "BAUMBEZEICHNUNG_BOTANISCH": "Quercus robur 'Fastigiata Koster'", "BAUMBEZEICHNUNG_DEUTSCH": "Säulenstieleiche Koster", "BAUMTYP": "Laub", "BEMERKUNG": null, "PFLANZJAHR": null, "ENTNAHMEJAHR": null, "BAUMPATENSCHAFT": null, "ALTERSKLASSIZIERUNG": "jung", "OBJECTID": 103 }, "geometry": { "type": "Point", "coordinates": [ 15.419252531346872, 47.049187794144586 ] } },
{ "type": "Feature", "properties": { "NUMMER": 29650, "BAUMBEZEICHNUNG_BOTANISCH": "Quercus robur 'Fastigiata Koster'", "BAUMBEZEICHNUNG_DEUTSCH": "Säulenstieleiche Koster", "BAUMTYP": "Laub", "BEMERKUNG": null, "PFLANZJAHR": null, "ENTNAHMEJAHR": null, "BAUMPATENSCHAFT": null, "ALTERSKLASSIZIERUNG": "jung", "OBJECTID": 104 }, "geometry": { "type": "Point", "coordinates": [ 15.419255156688946, 47.049237793656239 ] } },
{ "type": "Feature", "properties": { "NUMMER": 30145, "BAUMBEZEICHNUNG_BOTANISCH": "Acer platanoides", "BAUMBEZEICHNUNG_DEUTSCH": "Spitzahorn", "BAUMTYP": "Laub", "BEMERKUNG": null, "PFLANZJAHR": "2011", "ENTNAHMEJAHR": null, "BAUMPATENSCHAFT": null, "ALTERSKLASSIZIERUNG": "jung", "OBJECTID": 106 }, "geometry": { "type": "Point", "coordinates": [ 15.402511152663365, 47.07234837469619 ] } },
{ "type": "Feature", "properties": { "NUMMER": 30109, "BAUMBEZEICHNUNG_BOTANISCH": "Sophora japonica", "BAUMBEZEICHNUNG_DEUTSCH": "Schnurbaum", "BAUMTYP": "Laub", "BEMERKUNG": null, "PFLANZJAHR": "2011", "ENTNAHMEJAHR": null, "BAUMPATENSCHAFT": null, "ALTERSKLASSIZIERUNG": "jung", "OBJECTID": 107 }, "geometry": { "type": "Point", "coordinates": [ 15.388372984678092, 47.058190049753328 ] } },
{ "type": "Feature", "properties": { "NUMMER": 30141, "BAUMBEZEICHNUNG_BOTANISCH": "Prunus fruticosa 'Globosum'", "BAUMBEZEICHNUNG_DEUTSCH": "Kugelsandkirsche", "BAUMTYP": "Laub", "BEMERKUNG": null, "PFLANZJAHR": "2011", "ENTNAHMEJAHR": null, "BAUMPATENSCHAFT": null, "ALTERSKLASSIZIERUNG": "jung", "OBJECTID": 108 }, "geometry": { "type": "Point", "coordinates": [ 15.434284016971064, 47.068012060139992 ] } },
{ "type": "Feature", "properties": { "NUMMER": 30146, "BAUMBEZEICHNUNG_BOTANISCH": "Acer platanoides", "BAUMBEZEICHNUNG_DEUTSCH": "Spitzahorn", "BAUMTYP": "Laub", "BEMERKUNG": null, "PFLANZJAHR": "2011", "ENTNAHMEJAHR": null, "BAUMPATENSCHAFT": null, "ALTERSKLASSIZIERUNG": "jung", "OBJECTID": 109 }, "geometry": { "type": "Point", "coordinates": [ 15.402657602801821, 47.072334528732803 ] } },
{ "type": "Feature", "properties": { "NUMMER": 30139, "BAUMBEZEICHNUNG_BOTANISCH": "Cercis siliquastrum", "BAUMBEZEICHNUNG_DEUTSCH": "Gemeiner Judasbaum", "BAUMTYP": "Laub", "BEMERKUNG": null, "PFLANZJAHR": "2011", "ENTNAHMEJAHR": null, "BAUMPATENSCHAFT": null, "ALTERSKLASSIZIERUNG": "jung", "OBJECTID": 110 }, "geometry": { "type": "Point", "coordinates": [ 15.435814572133895, 47.065670468864838 ] } },
{ "type": "Feature", "properties": { "NUMMER": 30140, "BAUMBEZEICHNUNG_BOTANISCH": "Cercis siliquastrum", "BAUMBEZEICHNUNG_DEUTSCH": "Gemeiner Judasbaum", "BAUMTYP": "Laub", "BEMERKUNG": null, "PFLANZJAHR": "2011", "ENTNAHMEJAHR": null, "BAUMPATENSCHAFT": null, "ALTERSKLASSIZIERUNG": "jung", "OBJECTID": 111 }, "geometry": { "type": "Point", "coordinates": [ 15.435763823675668, 47.065669291833807 ] } },
{ "type": "Feature", "properties": { "NUMMER": 30179, "BAUMBEZEICHNUNG_BOTANISCH": "Liriodendron tulipifera", "BAUMBEZEICHNUNG_DEUTSCH": "Tulpenbaum", "BAUMTYP": "Laub", "BEMERKUNG": null, "PFLANZJAHR": "2011", "ENTNAHMEJAHR": null, "BAUMPATENSCHAFT": null, "ALTERSKLASSIZIERUNG": "jung", "OBJECTID": 115 }, "geometry": { "type": "Point", "coordinates": [ 15.43264022619269, 47.052483089577755 ] } },
{ "type": "Feature", "properties": { "NUMMER": 30135, "BAUMBEZEICHNUNG_BOTANISCH": "Tilia cordata", "BAUMBEZEICHNUNG_DEUTSCH": "Winterlinde", "BAUMTYP": "Laub", "BEMERKUNG": null, "PFLANZJAHR": "2011", "ENTNAHMEJAHR": null, "BAUMPATENSCHAFT": null, "ALTERSKLASSIZIERUNG": "jung", "OBJECTID": 116 }, "geometry": { "type": "Point", "coordinates": [ 15.434997361640018, 47.07341219250069 ] } },
{ "type": "Feature", "properties": { "NUMMER": 30172, "BAUMBEZEICHNUNG_BOTANISCH": "Juglans regia", "BAUMBEZEICHNUNG_DEUTSCH": "Walnuß", "BAUMTYP": "Laub", "BEMERKUNG": null, "PFLANZJAHR": "2011", "ENTNAHMEJAHR": null, "BAUMPATENSCHAFT": null, "ALTERSKLASSIZIERUNG": "jung", "OBJECTID": 118 }, "geometry": { "type": "Point", "coordinates": [ 15.421456057975117, 47.101055219080195 ] } },
{ "type": "Feature", "properties": { "NUMMER": 30159, "BAUMBEZEICHNUNG_BOTANISCH": "Prunus serrulata 'Shirofugen'", "BAUMBEZEICHNUNG_DEUTSCH": "Japanische Blütenkirsche", "BAUMTYP": "Laub", "BEMERKUNG": null, "PFLANZJAHR": "2011", "ENTNAHMEJAHR": null, "BAUMPATENSCHAFT": null, "ALTERSKLASSIZIERUNG": "jung", "OBJECTID": 119 }, "geometry": { "type": "Point", "coordinates": [ 15.396649063893733, 47.066963705087012 ] } },
{ "type": "Feature", "properties": { "NUMMER": 30136, "BAUMBEZEICHNUNG_BOTANISCH": "Parrotia persica", "BAUMBEZEICHNUNG_DEUTSCH": "Eisenholzbaum", "BAUMTYP": "Laub", "BEMERKUNG": null, "PFLANZJAHR": "2011", "ENTNAHMEJAHR": null, "BAUMPATENSCHAFT": null, "ALTERSKLASSIZIERUNG": "jung", "OBJECTID": 121 }, "geometry": { "type": "Point", "coordinates": [ 15.435878552631584, 47.07033659445149 ] } },
{ "type": "Feature", "properties": { "NUMMER": 30137, "BAUMBEZEICHNUNG_BOTANISCH": "Parrotia persica", "BAUMBEZEICHNUNG_DEUTSCH": "Eisenholzbaum", "BAUMTYP": "Laub", "BEMERKUNG": null, "PFLANZJAHR": "2011", "ENTNAHMEJAHR": null, "BAUMPATENSCHAFT": null, "ALTERSKLASSIZIERUNG": "jung", "OBJECTID": 122 }, "geometry": { "type": "Point", "coordinates": [ 15.435841055360108, 47.070334834400242 ] } },
{ "type": "Feature", "properties": { "NUMMER": 30138, "BAUMBEZEICHNUNG_BOTANISCH": "Parrotia persica", "BAUMBEZEICHNUNG_DEUTSCH": "Eisenholzbaum", "BAUMTYP": "Laub", "BEMERKUNG": null, "PFLANZJAHR": "2011", "ENTNAHMEJAHR": null, "BAUMPATENSCHAFT": null, "ALTERSKLASSIZIERUNG": "jung", "OBJECTID": 123 }, "geometry": { "type": "Point", "coordinates": [ 15.435876654713441, 47.07038566102154 ] } },
{ "type": "Feature", "properties": { "NUMMER": 13140, "BAUMBEZEICHNUNG_BOTANISCH": "Picea abies", "BAUMBEZEICHNUNG_DEUTSCH": "Rotfichte", "BAUMTYP": "Nadel", "BEMERKUNG": null, "PFLANZJAHR": null, "ENTNAHMEJAHR": null, "BAUMPATENSCHAFT": null, "ALTERSKLASSIZIERUNG": "mittel", "OBJECTID": 124 }, "geometry": { "type": "Point", "coordinates": [ 15.420993074591946, 47.063281245117643 ] } },
{ "type": "Feature", "properties": { "NUMMER": 30198, "BAUMBEZEICHNUNG_BOTANISCH": "Populus nigra 'Italica'", "BAUMBEZEICHNUNG_DEUTSCH": "Säulenpappel", "BAUMTYP": "Laub", "BEMERKUNG": null, "PFLANZJAHR": "2011", "ENTNAHMEJAHR": null, "BAUMPATENSCHAFT": null, "ALTERSKLASSIZIERUNG": "jung", "OBJECTID": 125 }, "geometry": { "type": "Point", "coordinates": [ 15.423725603942017, 47.050943255133426 ] } },
{ "type": "Feature", "properties": { "NUMMER": 30202, "BAUMBEZEICHNUNG_BOTANISCH": "Fraxinus excelsior", "BAUMBEZEICHNUNG_DEUTSCH": "Esche", "BAUMTYP": "Laub", "BEMERKUNG": null, "PFLANZJAHR": null, "ENTNAHMEJAHR": null, "BAUMPATENSCHAFT": null, "ALTERSKLASSIZIERUNG": "jung", "OBJECTID": 126 }, "geometry": { "type": "Point", "coordinates": [ 15.436235637266856, 47.061389494902855 ] } },
{ "type": "Feature", "properties": { "NUMMER": 30206, "BAUMBEZEICHNUNG_BOTANISCH": "Fraxinus excelsior", "BAUMBEZEICHNUNG_DEUTSCH": "Esche", "BAUMTYP": "Laub", "BEMERKUNG": null, "PFLANZJAHR": null, "ENTNAHMEJAHR": null, "BAUMPATENSCHAFT": null, "ALTERSKLASSIZIERUNG": "jung", "OBJECTID": 127 }, "geometry": { "type": "Point", "coordinates": [ 15.436124299478655, 47.061362202389667 ] } },
{ "type": "Feature", "properties": { "NUMMER": 29373, "BAUMBEZEICHNUNG_BOTANISCH": "Carpinus betulus 'Fastigiata'", "BAUMBEZEICHNUNG_DEUTSCH": "Säulenhainbuche", "BAUMTYP": "Laub", "BEMERKUNG": null, "PFLANZJAHR": "2009", "ENTNAHMEJAHR": null, "BAUMPATENSCHAFT": null, "ALTERSKLASSIZIERUNG": "jung", "OBJECTID": 128 }, "geometry": { "type": "Point", "coordinates": [ 15.42538453923965, 47.055006258468829 ] } },
{ "type": "Feature", "properties": { "NUMMER": 29374, "BAUMBEZEICHNUNG_BOTANISCH": "Magnolia kobus", "BAUMBEZEICHNUNG_DEUTSCH": "Baummagnolie", "BAUMTYP": "Laub", "BEMERKUNG": null, "PFLANZJAHR": "2009", "ENTNAHMEJAHR": null, "BAUMPATENSCHAFT": null, "ALTERSKLASSIZIERUNG": "jung", "OBJECTID": 129 }, "geometry": { "type": "Point", "coordinates": [ 15.425084185031601, 47.0548208646725 ] } },
{ "type": "Feature", "properties": { "NUMMER": 29375, "BAUMBEZEICHNUNG_BOTANISCH": "Acer platanoides", "BAUMBEZEICHNUNG_DEUTSCH": "Spitzahorn", "BAUMTYP": "Laub", "BEMERKUNG": null, "PFLANZJAHR": "2009", "ENTNAHMEJAHR": null, "BAUMPATENSCHAFT": null, "ALTERSKLASSIZIERUNG": "jung", "OBJECTID": 130 }, "geometry": { "type": "Point", "coordinates": [ 15.4250545022024, 47.054822060551423 ] } },
{ "type": "Feature", "properties": { "NUMMER": 25243, "BAUMBEZEICHNUNG_BOTANISCH": "Prunus sp.", "BAUMBEZEICHNUNG_DEUTSCH": "Kirsche", "BAUMTYP": "Laub", "BEMERKUNG": null, "PFLANZJAHR": null, "ENTNAHMEJAHR": null, "BAUMPATENSCHAFT": null, "ALTERSKLASSIZIERUNG": "mittel", "OBJECTID": 131 }, "geometry": { "type": "Point", "coordinates": [ 15.425474257179125, 47.054799623742817 ] } },
{ "type": "Feature", "properties": { "NUMMER": 24991, "BAUMBEZEICHNUNG_BOTANISCH": "Picea pungens", "BAUMBEZEICHNUNG_DEUTSCH": "Stechfichte", "BAUMTYP": "Nadel", "BEMERKUNG": null, "PFLANZJAHR": null, "ENTNAHMEJAHR": null, "BAUMPATENSCHAFT": null, "ALTERSKLASSIZIERUNG": "jung", "OBJECTID": 132 }, "geometry": { "type": "Point", "coordinates": [ 15.398281553926754, 47.047521770588695 ] } },
{ "type": "Feature", "properties": { "NUMMER": 25276, "BAUMBEZEICHNUNG_BOTANISCH": "Fraxinus excelsior", "BAUMBEZEICHNUNG_DEUTSCH": "Esche", "BAUMTYP": "Laub", "BEMERKUNG": null, "PFLANZJAHR": null, "ENTNAHMEJAHR": null, "BAUMPATENSCHAFT": null, "ALTERSKLASSIZIERUNG": "mittel", "OBJECTID": 133 }, "geometry": { "type": "Point", "coordinates": [ 15.447497541566481, 47.081455845301299 ] } },
{ "type": "Feature", "properties": { "NUMMER": 25284, "BAUMBEZEICHNUNG_BOTANISCH": "Fraxinus excelsior", "BAUMBEZEICHNUNG_DEUTSCH": "Esche", "BAUMTYP": "Laub", "BEMERKUNG": null, "PFLANZJAHR": null, "ENTNAHMEJAHR": null, "BAUMPATENSCHAFT": null, "ALTERSKLASSIZIERUNG": "mittel", "OBJECTID": 134 }, "geometry": { "type": "Point", "coordinates": [ 15.454841456278562, 47.062119527245969 ] } },
{ "type": "Feature", "properties": { "NUMMER": 27225, "BAUMBEZEICHNUNG_BOTANISCH": "Robinia pseudoacacia", "BAUMBEZEICHNUNG_DEUTSCH": "Scheinakazie", "BAUMTYP": "Laub", "BEMERKUNG": null, "PFLANZJAHR": null, "ENTNAHMEJAHR": null, "BAUMPATENSCHAFT": null, "ALTERSKLASSIZIERUNG": "alt", "OBJECTID": 135 }, "geometry": { "type": "Point", "coordinates": [ 15.432021618825019, 47.094800445637652 ] } },
{ "type": "Feature", "properties": { "NUMMER": 3355, "BAUMBEZEICHNUNG_BOTANISCH": "Tilia americana", "BAUMBEZEICHNUNG_DEUTSCH": "Amerikanische Linde", "BAUMTYP": "Laub", "BEMERKUNG": null, "PFLANZJAHR": null, "ENTNAHMEJAHR": null, "BAUMPATENSCHAFT": null, "ALTERSKLASSIZIERUNG": "mittel", "OBJECTID": 137 }, "geometry": { "type": "Point", "coordinates": [ 15.434941905484875, 47.0736949021708 ] } },
{ "type": "Feature", "properties": { "NUMMER": 7280, "BAUMBEZEICHNUNG_BOTANISCH": "Aesculus hippocastanum", "BAUMBEZEICHNUNG_DEUTSCH": "Gemeine Roßkastanie", "BAUMTYP": "Laub", "BEMERKUNG": null, "PFLANZJAHR": null, "ENTNAHMEJAHR": null, "BAUMPATENSCHAFT": null, "ALTERSKLASSIZIERUNG": "jung", "OBJECTID": 138 }, "geometry": { "type": "Point", "coordinates": [ 15.434066093527795, 47.078003999173959 ] } },
{ "type": "Feature", "properties": { "NUMMER": 24790, "BAUMBEZEICHNUNG_BOTANISCH": "Aesculus hippocastanum", "BAUMBEZEICHNUNG_DEUTSCH": "Gemeine Roßkastanie", "BAUMTYP": "Laub", "BEMERKUNG": null, "PFLANZJAHR": "2005", "ENTNAHMEJAHR": null, "BAUMPATENSCHAFT": null, "ALTERSKLASSIZIERUNG": "jung", "OBJECTID": 139 }, "geometry": { "type": "Point", "coordinates": [ 15.434134214261528, 47.07824161791082 ] } },
{ "type": "Feature", "properties": { "NUMMER": 758, "BAUMBEZEICHNUNG_BOTANISCH": "Tilia cordata", "BAUMBEZEICHNUNG_DEUTSCH": "Winterlinde", "BAUMTYP": "Laub", "BEMERKUNG": null, "PFLANZJAHR": null, "ENTNAHMEJAHR": null, "BAUMPATENSCHAFT": null, "ALTERSKLASSIZIERUNG": "mittel", "OBJECTID": 140 }, "geometry": { "type": "Point", "coordinates": [ 15.429239815657933, 47.073341478889731 ] } },
{ "type": "Feature", "properties": { "NUMMER": 15345, "BAUMBEZEICHNUNG_BOTANISCH": "Acer negundo", "BAUMBEZEICHNUNG_DEUTSCH": "Eschenahorn", "BAUMTYP": "Laub", "BEMERKUNG": null, "PFLANZJAHR": null, "ENTNAHMEJAHR": null, "BAUMPATENSCHAFT": null, "ALTERSKLASSIZIERUNG": "alt", "OBJECTID": 144 }, "geometry": { "type": "Point", "coordinates": [ 15.39535543702895, 47.071442996411278 ] } },
{ "type": "Feature", "properties": { "NUMMER": 17230, "BAUMBEZEICHNUNG_BOTANISCH": "Platanus x acerifolia", "BAUMBEZEICHNUNG_DEUTSCH": "Platane", "BAUMTYP": "Laub", "BEMERKUNG": null, "PFLANZJAHR": "1987", "ENTNAHMEJAHR": null, "BAUMPATENSCHAFT": null, "ALTERSKLASSIZIERUNG": "mittel", "OBJECTID": 145 }, "geometry": { "type": "Point", "coordinates": [ 15.401263724080708, 47.071584413401631 ] } },
{ "type": "Feature", "properties": { "NUMMER": 19508, "BAUMBEZEICHNUNG_BOTANISCH": "Tilia cordata", "BAUMBEZEICHNUNG_DEUTSCH": "Winterlinde", "BAUMTYP": "Laub", "BEMERKUNG": null, "PFLANZJAHR": null, "ENTNAHMEJAHR": null, "BAUMPATENSCHAFT": null, "ALTERSKLASSIZIERUNG": "alt", "OBJECTID": 146 }, "geometry": { "type": "Point", "coordinates": [ 15.403181403119332, 47.06874599994881 ] } },
{ "type": "Feature", "properties": { "NUMMER": 17123, "BAUMBEZEICHNUNG_BOTANISCH": "Tilia platyphyllos", "BAUMBEZEICHNUNG_DEUTSCH": "Sommerlinde", "BAUMTYP": "Laub", "BEMERKUNG": null, "PFLANZJAHR": null, "ENTNAHMEJAHR": null, "BAUMPATENSCHAFT": null, "ALTERSKLASSIZIERUNG": "alt", "OBJECTID": 148 }, "geometry": { "type": "Point", "coordinates": [ 15.390842511926044, 47.054289613097296 ] } },
{ "type": "Feature", "properties": { "NUMMER": 17115, "BAUMBEZEICHNUNG_BOTANISCH": "Tilia platyphyllos", "BAUMBEZEICHNUNG_DEUTSCH": "Sommerlinde", "BAUMTYP": "Laub", "BEMERKUNG": null, "PFLANZJAHR": null, "ENTNAHMEJAHR": null, "BAUMPATENSCHAFT": null, "ALTERSKLASSIZIERUNG": "alt", "OBJECTID": 149 }, "geometry": { "type": "Point", "coordinates": [ 15.39169122969723, 47.054329393590969 ] } },
{ "type": "Feature", "properties": { "NUMMER": 18419, "BAUMBEZEICHNUNG_BOTANISCH": "Fraxinus excelsior", "BAUMBEZEICHNUNG_DEUTSCH": "Esche", "BAUMTYP": "Laub", "BEMERKUNG": null, "PFLANZJAHR": null, "ENTNAHMEJAHR": null, "BAUMPATENSCHAFT": null, "ALTERSKLASSIZIERUNG": "mittel", "OBJECTID": 153 }, "geometry": { "type": "Point", "coordinates": [ 15.386392841449481, 47.040699655941943 ] } },
{ "type": "Feature", "properties": { "NUMMER": 23967, "BAUMBEZEICHNUNG_BOTANISCH": "Tilia tomentosa", "BAUMBEZEICHNUNG_DEUTSCH": "Silberlinde", "BAUMTYP": "Laub", "BEMERKUNG": null, "PFLANZJAHR": null, "ENTNAHMEJAHR": null, "BAUMPATENSCHAFT": null, "ALTERSKLASSIZIERUNG": "jung", "OBJECTID": 160 }, "geometry": { "type": "Point", "coordinates": [ 15.411364754504723, 47.04049053112935 ] } },
{ "type": "Feature", "properties": { "NUMMER": 17009, "BAUMBEZEICHNUNG_BOTANISCH": "Carpinus betulus", "BAUMBEZEICHNUNG_DEUTSCH": "Hain - oder Weißbuche", "BAUMTYP": "Laub", "BEMERKUNG": null, "PFLANZJAHR": null, "ENTNAHMEJAHR": null, "BAUMPATENSCHAFT": null, "ALTERSKLASSIZIERUNG": "mittel", "OBJECTID": 164 }, "geometry": { "type": "Point", "coordinates": [ 15.398871264643867, 47.047450295820205 ] } },
{ "type": "Feature", "properties": { "NUMMER": 10864, "BAUMBEZEICHNUNG_BOTANISCH": "Sophora japonica", "BAUMBEZEICHNUNG_DEUTSCH": "Schnurbaum", "BAUMTYP": "Laub", "BEMERKUNG": null, "PFLANZJAHR": null, "ENTNAHMEJAHR": null, "BAUMPATENSCHAFT": null, "ALTERSKLASSIZIERUNG": "alt", "OBJECTID": 165 }, "geometry": { "type": "Point", "coordinates": [ 15.428256902928652, 47.066601157909574 ] } },
{ "type": "Feature", "properties": { "NUMMER": 18465, "BAUMBEZEICHNUNG_BOTANISCH": "Aesculus hippocastanum", "BAUMBEZEICHNUNG_DEUTSCH": "Gemeine Roßkastanie", "BAUMTYP": "Laub", "BEMERKUNG": null, "PFLANZJAHR": null, "ENTNAHMEJAHR": null, "BAUMPATENSCHAFT": null, "ALTERSKLASSIZIERUNG": "mittel", "OBJECTID": 166 }, "geometry": { "type": "Point", "coordinates": [ 15.38615725184393, 47.0386403781052 ] } },
{ "type": "Feature", "properties": { "NUMMER": 27403, "BAUMBEZEICHNUNG_BOTANISCH": "Aesculus hippocastanum", "BAUMBEZEICHNUNG_DEUTSCH": "Gemeine Roßkastanie", "BAUMTYP": "Laub", "BEMERKUNG": null, "PFLANZJAHR": "2007", "ENTNAHMEJAHR": null, "BAUMPATENSCHAFT": null, "ALTERSKLASSIZIERUNG": "jung", "OBJECTID": 169 }, "geometry": { "type": "Point", "coordinates": [ 15.445764994145314, 47.071558641184147 ] } },
{ "type": "Feature", "properties": { "NUMMER": 27402, "BAUMBEZEICHNUNG_BOTANISCH": "Aesculus hippocastanum", "BAUMBEZEICHNUNG_DEUTSCH": "Gemeine Roßkastanie", "BAUMTYP": "Laub", "BEMERKUNG": null, "PFLANZJAHR": "2007", "ENTNAHMEJAHR": null, "BAUMPATENSCHAFT": null, "ALTERSKLASSIZIERUNG": "jung", "OBJECTID": 170 }, "geometry": { "type": "Point", "coordinates": [ 15.445699772795248, 47.071619782566678 ] } },
{ "type": "Feature", "properties": { "NUMMER": 15195, "BAUMBEZEICHNUNG_BOTANISCH": "Sophora japonica", "BAUMBEZEICHNUNG_DEUTSCH": "Schnurbaum", "BAUMTYP": "Laub", "BEMERKUNG": null, "PFLANZJAHR": null, "ENTNAHMEJAHR": null, "BAUMPATENSCHAFT": null, "ALTERSKLASSIZIERUNG": "alt", "OBJECTID": 171 }, "geometry": { "type": "Point", "coordinates": [ 15.405197381455041, 47.068222238037301 ] } },
{ "type": "Feature", "properties": { "NUMMER": 27400, "BAUMBEZEICHNUNG_BOTANISCH": "Aesculus hippocastanum", "BAUMBEZEICHNUNG_DEUTSCH": "Gemeine Roßkastanie", "BAUMTYP": "Laub", "BEMERKUNG": null, "PFLANZJAHR": "2007", "ENTNAHMEJAHR": null, "BAUMPATENSCHAFT": null, "ALTERSKLASSIZIERUNG": "jung", "OBJECTID": 172 }, "geometry": { "type": "Point", "coordinates": [ 15.445643809963977, 47.07167599555369 ] } },
{ "type": "Feature", "properties": { "NUMMER": 27411, "BAUMBEZEICHNUNG_BOTANISCH": "Aesculus hippocastanum", "BAUMBEZEICHNUNG_DEUTSCH": "Gemeine Roßkastanie", "BAUMTYP": "Laub", "BEMERKUNG": null, "PFLANZJAHR": "2007", "ENTNAHMEJAHR": null, "BAUMPATENSCHAFT": null, "ALTERSKLASSIZIERUNG": "jung", "OBJECTID": 173 }, "geometry": { "type": "Point", "coordinates": [ 15.446129225180117, 47.071291924870962 ] } },
{ "type": "Feature", "properties": { "NUMMER": 9527, "BAUMBEZEICHNUNG_BOTANISCH": "Pyrus calleryana 'Chanticleer'", "BAUMBEZEICHNUNG_DEUTSCH": "Chinesische Wildbirne", "BAUMTYP": "Laub", "BEMERKUNG": null, "PFLANZJAHR": "1990", "ENTNAHMEJAHR": null, "BAUMPATENSCHAFT": null, "ALTERSKLASSIZIERUNG": "jung", "OBJECTID": 176 }, "geometry": { "type": "Point", "coordinates": [ 15.43101367261926, 47.08286796277747 ] } },
{ "type": "Feature", "properties": { "NUMMER": 29924, "BAUMBEZEICHNUNG_BOTANISCH": "Populus x canescens", "BAUMBEZEICHNUNG_DEUTSCH": "Graupappel", "BAUMTYP": "Laub", "BEMERKUNG": null, "PFLANZJAHR": "2010", "ENTNAHMEJAHR": null, "BAUMPATENSCHAFT": null, "ALTERSKLASSIZIERUNG": "jung", "OBJECTID": 181 }, "geometry": { "type": "Point", "coordinates": [ 15.444251110613727, 47.046242330197238 ] } },
{ "type": "Feature", "properties": { "NUMMER": 15199, "BAUMBEZEICHNUNG_BOTANISCH": "Sophora japonica", "BAUMBEZEICHNUNG_DEUTSCH": "Schnurbaum", "BAUMTYP": "Laub", "BEMERKUNG": null, "PFLANZJAHR": null, "ENTNAHMEJAHR": null, "BAUMPATENSCHAFT": null, "ALTERSKLASSIZIERUNG": "mittel", "OBJECTID": 182 }, "geometry": { "type": "Point", "coordinates": [ 15.404798249957731, 47.068228492639179 ] } },
{ "type": "Feature", "properties": { "NUMMER": 29012, "BAUMBEZEICHNUNG_BOTANISCH": "Koelreuteria paniculata", "BAUMBEZEICHNUNG_DEUTSCH": "Blasenbaum", "BAUMTYP": "Laub", "BEMERKUNG": null, "PFLANZJAHR": "2008", "ENTNAHMEJAHR": null, "BAUMPATENSCHAFT": null, "ALTERSKLASSIZIERUNG": "jung", "OBJECTID": 185 }, "geometry": { "type": "Point", "coordinates": [ 15.441362243623569, 47.073918442486509 ] } },
{ "type": "Feature", "properties": { "NUMMER": 29031, "BAUMBEZEICHNUNG_BOTANISCH": "Aesculus hippocastanum", "BAUMBEZEICHNUNG_DEUTSCH": "Gemeine Roßkastanie", "BAUMTYP": "Laub", "BEMERKUNG": null, "PFLANZJAHR": "2008", "ENTNAHMEJAHR": null, "BAUMPATENSCHAFT": null, "ALTERSKLASSIZIERUNG": "jung", "OBJECTID": 186 }, "geometry": { "type": "Point", "coordinates": [ 15.465349982893601, 47.052942940922151 ] } },
{ "type": "Feature", "properties": { "NUMMER": 24642, "BAUMBEZEICHNUNG_BOTANISCH": "Koelreuteria paniculata", "BAUMBEZEICHNUNG_DEUTSCH": "Blasenbaum", "BAUMTYP": "Laub", "BEMERKUNG": null, "PFLANZJAHR": "2005", "ENTNAHMEJAHR": null, "BAUMPATENSCHAFT": null, "ALTERSKLASSIZIERUNG": "jung", "OBJECTID": 190 }, "geometry": { "type": "Point", "coordinates": [ 15.440272161811928, 47.073978061026096 ] } },
{ "type": "Feature", "properties": { "NUMMER": 24644, "BAUMBEZEICHNUNG_BOTANISCH": "Koelreuteria paniculata", "BAUMBEZEICHNUNG_DEUTSCH": "Blasenbaum", "BAUMTYP": "Laub", "BEMERKUNG": null, "PFLANZJAHR": "2005", "ENTNAHMEJAHR": null, "BAUMPATENSCHAFT": null, "ALTERSKLASSIZIERUNG": "jung", "OBJECTID": 191 }, "geometry": { "type": "Point", "coordinates": [ 15.440343849682039, 47.073979817199302 ] } },
{ "type": "Feature", "properties": { "NUMMER": 23703, "BAUMBEZEICHNUNG_BOTANISCH": "Alnus glutinosa", "BAUMBEZEICHNUNG_DEUTSCH": "Schwarzerle", "BAUMTYP": "Laub", "BEMERKUNG": null, "PFLANZJAHR": "2002", "ENTNAHMEJAHR": null, "BAUMPATENSCHAFT": null, "ALTERSKLASSIZIERUNG": "jung", "OBJECTID": 192 }, "geometry": { "type": "Point", "coordinates": [ 15.445438353785564, 47.035600466770894 ] } },
{ "type": "Feature", "properties": { "NUMMER": 24629, "BAUMBEZEICHNUNG_BOTANISCH": "Aesculus flava", "BAUMBEZEICHNUNG_DEUTSCH": "Gelbe Pavie", "BAUMTYP": "Laub", "BEMERKUNG": null, "PFLANZJAHR": "2005", "ENTNAHMEJAHR": null, "BAUMPATENSCHAFT": null, "ALTERSKLASSIZIERUNG": "jung", "OBJECTID": 193 }, "geometry": { "type": "Point", "coordinates": [ 15.440046487841142, 47.045833618940442 ] } },
{ "type": "Feature", "properties": { "NUMMER": 25528, "BAUMBEZEICHNUNG_BOTANISCH": "Acer platanoides", "BAUMBEZEICHNUNG_DEUTSCH": "Spitzahorn", "BAUMTYP": "Laub", "BEMERKUNG": null, "PFLANZJAHR": null, "ENTNAHMEJAHR": null, "BAUMPATENSCHAFT": null, "ALTERSKLASSIZIERUNG": "mittel", "OBJECTID": 195 }, "geometry": { "type": "Point", "coordinates": [ 15.427545876372179, 47.064789097404379 ] } },
{ "type": "Feature", "properties": { "NUMMER": 24509, "BAUMBEZEICHNUNG_BOTANISCH": "Prunus avium", "BAUMBEZEICHNUNG_DEUTSCH": "Vogelkirsche", "BAUMTYP": "Laub", "BEMERKUNG": null, "PFLANZJAHR": null, "ENTNAHMEJAHR": null, "BAUMPATENSCHAFT": null, "ALTERSKLASSIZIERUNG": "jung", "OBJECTID": 196 }, "geometry": { "type": "Point", "coordinates": [ 15.415898809054903, 47.044339379580961 ] } },
{ "type": "Feature", "properties": { "NUMMER": 16743, "BAUMBEZEICHNUNG_BOTANISCH": "Populus nigra 'Italica'", "BAUMBEZEICHNUNG_DEUTSCH": "Säulenpappel", "BAUMTYP": "Laub", "BEMERKUNG": "trotz regelmäßig durchgeführter Baumpflege Kronenbereich bis in den Grobastbereich zurückgetrocknet, Ersatzpflanzung geplant", "PFLANZJAHR": null, "ENTNAHMEJAHR": null, "BAUMPATENSCHAFT": null, "ALTERSKLASSIZIERUNG": "mittel", "OBJECTID": 197 }, "geometry": { "type": "Point", "coordinates": [ 15.403245540306573, 47.055179783135401 ] } },
{ "type": "Feature", "properties": { "NUMMER": 12043, "BAUMBEZEICHNUNG_BOTANISCH": "Acer platanoides", "BAUMBEZEICHNUNG_DEUTSCH": "Spitzahorn", "BAUMTYP": "Laub", "BEMERKUNG": null, "PFLANZJAHR": null, "ENTNAHMEJAHR": null, "BAUMPATENSCHAFT": null, "ALTERSKLASSIZIERUNG": "jung", "OBJECTID": 201 }, "geometry": { "type": "Point", "coordinates": [ 15.415480815325369, 47.080938905977 ] } },
{ "type": "Feature", "properties": { "NUMMER": 7677, "BAUMBEZEICHNUNG_BOTANISCH": "Platanus x acerifolia", "BAUMBEZEICHNUNG_DEUTSCH": "Platane", "BAUMTYP": "Laub", "BEMERKUNG": null, "PFLANZJAHR": null, "ENTNAHMEJAHR": null, "BAUMPATENSCHAFT": null, "ALTERSKLASSIZIERUNG": "mittel", "OBJECTID": 202 }, "geometry": { "type": "Point", "coordinates": [ 15.459848210240729, 47.084033491189821 ] } },
{ "type": "Feature", "properties": { "NUMMER": 29594, "BAUMBEZEICHNUNG_BOTANISCH": "Koelreuteria paniculata 'Fastigiata'", "BAUMBEZEICHNUNG_DEUTSCH": "Säulenblasenbaum", "BAUMTYP": "Laub", "BEMERKUNG": null, "PFLANZJAHR": null, "ENTNAHMEJAHR": null, "BAUMPATENSCHAFT": null, "ALTERSKLASSIZIERUNG": "jung", "OBJECTID": 257 }, "geometry": { "type": "Point", "coordinates": [ 15.431634947944337, 47.03156014289317 ] } },
{ "type": "Feature", "properties": { "NUMMER": 29595, "BAUMBEZEICHNUNG_BOTANISCH": "Koelreuteria paniculata 'Fastigiata'", "BAUMBEZEICHNUNG_DEUTSCH": "Säulenblasenbaum", "BAUMTYP": "Laub", "BEMERKUNG": null, "PFLANZJAHR": null, "ENTNAHMEJAHR": null, "BAUMPATENSCHAFT": null, "ALTERSKLASSIZIERUNG": "jung", "OBJECTID": 258 }, "geometry": { "type": "Point", "coordinates": [ 15.431635697683811, 47.031610453068843 ] } },
{ "type": "Feature", "properties": { "NUMMER": 29596, "BAUMBEZEICHNUNG_BOTANISCH": "Koelreuteria paniculata 'Fastigiata'", "BAUMBEZEICHNUNG_DEUTSCH": "Säulenblasenbaum", "BAUMTYP": "Laub", "BEMERKUNG": null, "PFLANZJAHR": null, "ENTNAHMEJAHR": null, "BAUMPATENSCHAFT": null, "ALTERSKLASSIZIERUNG": "jung", "OBJECTID": 259 }, "geometry": { "type": "Point", "coordinates": [ 15.431631611823715, 47.031662911761345 ] } },
{ "type": "Feature", "properties": { "NUMMER": 29597, "BAUMBEZEICHNUNG_BOTANISCH": "Koelreuteria paniculata 'Fastigiata'", "BAUMBEZEICHNUNG_DEUTSCH": "Säulenblasenbaum", "BAUMTYP": "Laub", "BEMERKUNG": null, "PFLANZJAHR": null, "ENTNAHMEJAHR": null, "BAUMPATENSCHAFT": null, "ALTERSKLASSIZIERUNG": "jung", "OBJECTID": 260 }, "geometry": { "type": "Point", "coordinates": [ 15.431627490313543, 47.031717557782386 ] } },
{ "type": "Feature", "properties": { "NUMMER": 29614, "BAUMBEZEICHNUNG_BOTANISCH": "Koelreuteria paniculata", "BAUMBEZEICHNUNG_DEUTSCH": "Blasenbaum", "BAUMTYP": "Laub", "BEMERKUNG": null, "PFLANZJAHR": null, "ENTNAHMEJAHR": null, "BAUMPATENSCHAFT": null, "ALTERSKLASSIZIERUNG": "jung", "OBJECTID": 261 }, "geometry": { "type": "Point", "coordinates": [ 15.431322599789889, 47.03083045306402 ] } },
{ "type": "Feature", "properties": { "NUMMER": 29615, "BAUMBEZEICHNUNG_BOTANISCH": "Quercus palustris", "BAUMBEZEICHNUNG_DEUTSCH": "Sumpf - Eiche", "BAUMTYP": "Laub", "BEMERKUNG": null, "PFLANZJAHR": null, "ENTNAHMEJAHR": null, "BAUMPATENSCHAFT": null, "ALTERSKLASSIZIERUNG": "jung", "OBJECTID": 262 }, "geometry": { "type": "Point", "coordinates": [ 15.431330344303824, 47.030750683540823 ] } },
{ "type": "Feature", "properties": { "NUMMER": 8171, "BAUMBEZEICHNUNG_BOTANISCH": "Acer platanoides", "BAUMBEZEICHNUNG_DEUTSCH": "Spitzahorn", "BAUMTYP": "Laub", "BEMERKUNG": null, "PFLANZJAHR": null, "ENTNAHMEJAHR": null, "BAUMPATENSCHAFT": null, "ALTERSKLASSIZIERUNG": "alt", "OBJECTID": 263 }, "geometry": { "type": "Point", "coordinates": [ 15.448930547419721, 47.072155909145479 ] } },
{ "type": "Feature", "properties": { "NUMMER": 8168, "BAUMBEZEICHNUNG_BOTANISCH": "Ulmus sp.", "BAUMBEZEICHNUNG_DEUTSCH": "Ulme", "BAUMTYP": "Laub", "BEMERKUNG": null, "PFLANZJAHR": null, "ENTNAHMEJAHR": null, "BAUMPATENSCHAFT": null, "ALTERSKLASSIZIERUNG": "mittel", "OBJECTID": 264 }, "geometry": { "type": "Point", "coordinates": [ 15.448939802606168, 47.072237807862379 ] } },
{ "type": "Feature", "properties": { "NUMMER": 8375, "BAUMBEZEICHNUNG_BOTANISCH": "Robinia pseudoacacia", "BAUMBEZEICHNUNG_DEUTSCH": "Scheinakazie", "BAUMTYP": "Laub", "BEMERKUNG": null, "PFLANZJAHR": null, "ENTNAHMEJAHR": null, "BAUMPATENSCHAFT": null, "ALTERSKLASSIZIERUNG": "mittel", "OBJECTID": 265 }, "geometry": { "type": "Point", "coordinates": [ 15.449562850791224, 47.073184042192345 ] } },
{ "type": "Feature", "properties": { "NUMMER": 8371, "BAUMBEZEICHNUNG_BOTANISCH": "Robinia pseudoacacia", "BAUMBEZEICHNUNG_DEUTSCH": "Scheinakazie", "BAUMTYP": "Laub", "BEMERKUNG": null, "PFLANZJAHR": null, "ENTNAHMEJAHR": null, "BAUMPATENSCHAFT": null, "ALTERSKLASSIZIERUNG": "alt", "OBJECTID": 266 }, "geometry": { "type": "Point", "coordinates": [ 15.449666331247602, 47.073166605742834 ] } },
{ "type": "Feature", "properties": { "NUMMER": 8357, "BAUMBEZEICHNUNG_BOTANISCH": "Robinia pseudoacacia", "BAUMBEZEICHNUNG_DEUTSCH": "Scheinakazie", "BAUMTYP": "Laub", "BEMERKUNG": null, "PFLANZJAHR": null, "ENTNAHMEJAHR": null, "BAUMPATENSCHAFT": null, "ALTERSKLASSIZIERUNG": "alt", "OBJECTID": 267 }, "geometry": { "type": "Point", "coordinates": [ 15.449624417076022, 47.073296071686762 ] } },
{ "type": "Feature", "properties": { "NUMMER": 8358, "BAUMBEZEICHNUNG_BOTANISCH": "Robinia pseudoacacia", "BAUMBEZEICHNUNG_DEUTSCH": "Scheinakazie", "BAUMTYP": "Laub", "BEMERKUNG": null, "PFLANZJAHR": null, "ENTNAHMEJAHR": null, "BAUMPATENSCHAFT": null, "ALTERSKLASSIZIERUNG": "mittel", "OBJECTID": 268 }, "geometry": { "type": "Point", "coordinates": [ 15.449624353977081, 47.073271533621089 ] } },
{ "type": "Feature", "properties": { "NUMMER": 8370, "BAUMBEZEICHNUNG_BOTANISCH": "Robinia pseudoacacia", "BAUMBEZEICHNUNG_DEUTSCH": "Scheinakazie", "BAUMTYP": "Laub", "BEMERKUNG": null, "PFLANZJAHR": null, "ENTNAHMEJAHR": null, "BAUMPATENSCHAFT": null, "ALTERSKLASSIZIERUNG": "mittel", "OBJECTID": 269 }, "geometry": { "type": "Point", "coordinates": [ 15.449603872420616, 47.073184851764097 ] } },
{ "type": "Feature", "properties": { "NUMMER": 22186, "BAUMBEZEICHNUNG_BOTANISCH": "Fagus sylvatica", "BAUMBEZEICHNUNG_DEUTSCH": "Rotbuche", "BAUMTYP": "Laub", "BEMERKUNG": null, "PFLANZJAHR": null, "ENTNAHMEJAHR": null, "BAUMPATENSCHAFT": null, "ALTERSKLASSIZIERUNG": "jung", "OBJECTID": 270 }, "geometry": { "type": "Point", "coordinates": [ 15.496425652625385, 47.104728459527173 ] } },
{ "type": "Feature", "properties": { "NUMMER": 8039, "BAUMBEZEICHNUNG_BOTANISCH": "Tilia cordata", "BAUMBEZEICHNUNG_DEUTSCH": "Winterlinde", "BAUMTYP": "Laub", "BEMERKUNG": null, "PFLANZJAHR": null, "ENTNAHMEJAHR": "2012", "BAUMPATENSCHAFT": null, "ALTERSKLASSIZIERUNG": "alt", "OBJECTID": 271 }, "geometry": { "type": "Point", "coordinates": [ 15.472549303857212, 47.038054514457457 ] } },
{ "type": "Feature", "properties": { "NUMMER": 8035, "BAUMBEZEICHNUNG_BOTANISCH": "Prunus domestica", "BAUMBEZEICHNUNG_DEUTSCH": "Pflaume", "BAUMTYP": "Laub", "BEMERKUNG": null, "PFLANZJAHR": null, "ENTNAHMEJAHR": null, "BAUMPATENSCHAFT": null, "ALTERSKLASSIZIERUNG": "jung", "OBJECTID": 272 }, "geometry": { "type": "Point", "coordinates": [ 15.472110782146563, 47.03845573133983 ] } },
{ "type": "Feature", "properties": { "NUMMER": 22179, "BAUMBEZEICHNUNG_BOTANISCH": "Carpinus betulus", "BAUMBEZEICHNUNG_DEUTSCH": "Hain - oder Weißbuche", "BAUMTYP": "Laub", "BEMERKUNG": null, "PFLANZJAHR": null, "ENTNAHMEJAHR": null, "BAUMPATENSCHAFT": null, "ALTERSKLASSIZIERUNG": "mittel", "OBJECTID": 273 }, "geometry": { "type": "Point", "coordinates": [ 15.496277383779901, 47.10474060227429 ] } },
{ "type": "Feature", "properties": { "NUMMER": 4051, "BAUMBEZEICHNUNG_BOTANISCH": "Robinia pseudoacacia", "BAUMBEZEICHNUNG_DEUTSCH": "Scheinakazie", "BAUMTYP": "Laub", "BEMERKUNG": null, "PFLANZJAHR": null, "ENTNAHMEJAHR": null, "BAUMPATENSCHAFT": null, "ALTERSKLASSIZIERUNG": "alt", "OBJECTID": 274 }, "geometry": { "type": "Point", "coordinates": [ 15.445156168572183, 47.052754245702545 ] } },
{ "type": "Feature", "properties": { "NUMMER": 8027, "BAUMBEZEICHNUNG_BOTANISCH": "Picea abies", "BAUMBEZEICHNUNG_DEUTSCH": "Rotfichte", "BAUMTYP": "Nadel", "BEMERKUNG": null, "PFLANZJAHR": null, "ENTNAHMEJAHR": null, "BAUMPATENSCHAFT": null, "ALTERSKLASSIZIERUNG": "alt", "OBJECTID": 275 }, "geometry": { "type": "Point", "coordinates": [ 15.470770757815432, 47.039325632787282 ] } },
{ "type": "Feature", "properties": { "NUMMER": 22156, "BAUMBEZEICHNUNG_BOTANISCH": "Quercus robur", "BAUMBEZEICHNUNG_DEUTSCH": "Stieleiche", "BAUMTYP": "Laub", "BEMERKUNG": null, "PFLANZJAHR": null, "ENTNAHMEJAHR": null, "BAUMPATENSCHAFT": null, "ALTERSKLASSIZIERUNG": "alt", "OBJECTID": 277 }, "geometry": { "type": "Point", "coordinates": [ 15.495994593834451, 47.105035783886699 ] } },
{ "type": "Feature", "properties": { "NUMMER": 22197, "BAUMBEZEICHNUNG_BOTANISCH": "Carpinus betulus", "BAUMBEZEICHNUNG_DEUTSCH": "Hain - oder Weißbuche", "BAUMTYP": "Laub", "BEMERKUNG": null, "PFLANZJAHR": null, "ENTNAHMEJAHR": null, "BAUMPATENSCHAFT": null, "ALTERSKLASSIZIERUNG": "jung", "OBJECTID": 278 }, "geometry": { "type": "Point", "coordinates": [ 15.496388731416831, 47.104693771329877 ] } },
{ "type": "Feature", "properties": { "NUMMER": 29607, "BAUMBEZEICHNUNG_BOTANISCH": "Ulmus resista 'New Horizon'", "BAUMBEZEICHNUNG_DEUTSCH": "Resista-Ulme", "BAUMTYP": "Laub", "BEMERKUNG": null, "PFLANZJAHR": "2007", "ENTNAHMEJAHR": null, "BAUMPATENSCHAFT": null, "ALTERSKLASSIZIERUNG": "jung", "OBJECTID": 279 }, "geometry": { "type": "Point", "coordinates": [ 15.421469068711261, 47.042214411536669 ] } },
{ "type": "Feature", "properties": { "NUMMER": 29608, "BAUMBEZEICHNUNG_BOTANISCH": "Koelreuteria paniculata", "BAUMBEZEICHNUNG_DEUTSCH": "Blasenbaum", "BAUMTYP": "Laub", "BEMERKUNG": null, "PFLANZJAHR": "2007", "ENTNAHMEJAHR": null, "BAUMPATENSCHAFT": null, "ALTERSKLASSIZIERUNG": "jung", "OBJECTID": 280 }, "geometry": { "type": "Point", "coordinates": [ 15.421842738852446, 47.042253482874862 ] } },
{ "type": "Feature", "properties": { "NUMMER": 29613, "BAUMBEZEICHNUNG_BOTANISCH": "Ulmus resista 'New Horizon'", "BAUMBEZEICHNUNG_DEUTSCH": "Resista-Ulme", "BAUMTYP": "Laub", "BEMERKUNG": null, "PFLANZJAHR": null, "ENTNAHMEJAHR": null, "BAUMPATENSCHAFT": null, "ALTERSKLASSIZIERUNG": "jung", "OBJECTID": 281 }, "geometry": { "type": "Point", "coordinates": [ 15.422405701553807, 47.042770333977678 ] } },
{ "type": "Feature", "properties": { "NUMMER": 29612, "BAUMBEZEICHNUNG_BOTANISCH": "Ulmus resista 'New Horizon'", "BAUMBEZEICHNUNG_DEUTSCH": "Resista-Ulme", "BAUMTYP": "Laub", "BEMERKUNG": null, "PFLANZJAHR": null, "ENTNAHMEJAHR": null, "BAUMPATENSCHAFT": null, "ALTERSKLASSIZIERUNG": "jung", "OBJECTID": 282 }, "geometry": { "type": "Point", "coordinates": [ 15.422458185358074, 47.042739334660453 ] } },
{ "type": "Feature", "properties": { "NUMMER": 22164, "BAUMBEZEICHNUNG_BOTANISCH": "Acer pseudoplatanus", "BAUMBEZEICHNUNG_DEUTSCH": "Bergahorn", "BAUMTYP": "Laub", "BEMERKUNG": null, "PFLANZJAHR": null, "ENTNAHMEJAHR": null, "BAUMPATENSCHAFT": null, "ALTERSKLASSIZIERUNG": "mittel", "OBJECTID": 283 }, "geometry": { "type": "Point", "coordinates": [ 15.496112745001259, 47.104938983797446 ] } },
{ "type": "Feature", "properties": { "NUMMER": 22163, "BAUMBEZEICHNUNG_BOTANISCH": "Acer pseudoplatanus", "BAUMBEZEICHNUNG_DEUTSCH": "Bergahorn", "BAUMTYP": "Laub", "BEMERKUNG": null, "PFLANZJAHR": null, "ENTNAHMEJAHR": null, "BAUMPATENSCHAFT": null, "ALTERSKLASSIZIERUNG": "mittel", "OBJECTID": 284 }, "geometry": { "type": "Point", "coordinates": [ 15.496073434057406, 47.104986110758063 ] } },
{ "type": "Feature", "properties": { "NUMMER": 24101, "BAUMBEZEICHNUNG_BOTANISCH": "Acer platanoides", "BAUMBEZEICHNUNG_DEUTSCH": "Spitzahorn", "BAUMTYP": "Laub", "BEMERKUNG": null, "PFLANZJAHR": "2004", "ENTNAHMEJAHR": null, "BAUMPATENSCHAFT": null, "ALTERSKLASSIZIERUNG": "jung", "OBJECTID": 285 }, "geometry": { "type": "Point", "coordinates": [ 15.444493567784253, 47.051859820276555 ] } },
{ "type": "Feature", "properties": { "NUMMER": 22153, "BAUMBEZEICHNUNG_BOTANISCH": "Fagus sylvatica", "BAUMBEZEICHNUNG_DEUTSCH": "Rotbuche", "BAUMTYP": "Laub", "BEMERKUNG": null, "PFLANZJAHR": null, "ENTNAHMEJAHR": null, "BAUMPATENSCHAFT": null, "ALTERSKLASSIZIERUNG": "alt", "OBJECTID": 286 }, "geometry": { "type": "Point", "coordinates": [ 15.495893181648691, 47.105105763967202 ] } },
{ "type": "Feature", "properties": { "NUMMER": 19972, "BAUMBEZEICHNUNG_BOTANISCH": "Tilia cordata", "BAUMBEZEICHNUNG_DEUTSCH": "Winterlinde", "BAUMTYP": "Laub", "BEMERKUNG": null, "PFLANZJAHR": "1995", "ENTNAHMEJAHR": null, "BAUMPATENSCHAFT": null, "ALTERSKLASSIZIERUNG": "jung", "OBJECTID": 287 }, "geometry": { "type": "Point", "coordinates": [ 15.472588929290211, 47.038011443424764 ] } },
{ "type": "Feature", "properties": { "NUMMER": 22170, "BAUMBEZEICHNUNG_BOTANISCH": "Quercus robur", "BAUMBEZEICHNUNG_DEUTSCH": "Stieleiche", "BAUMTYP": "Laub", "BEMERKUNG": null, "PFLANZJAHR": null, "ENTNAHMEJAHR": null, "BAUMPATENSCHAFT": null, "ALTERSKLASSIZIERUNG": "mittel", "OBJECTID": 288 }, "geometry": { "type": "Point", "coordinates": [ 15.496078483779847, 47.104845420337874 ] } },
{ "type": "Feature", "properties": { "NUMMER": 22180, "BAUMBEZEICHNUNG_BOTANISCH": "Fraxinus excelsior", "BAUMBEZEICHNUNG_DEUTSCH": "Esche", "BAUMTYP": "Laub", "BEMERKUNG": null, "PFLANZJAHR": null, "ENTNAHMEJAHR": null, "BAUMPATENSCHAFT": null, "ALTERSKLASSIZIERUNG": "alt", "OBJECTID": 289 }, "geometry": { "type": "Point", "coordinates": [ 15.496292825318481, 47.104740077753114 ] } },
{ "type": "Feature", "properties": { "NUMMER": 22162, "BAUMBEZEICHNUNG_BOTANISCH": "Acer pseudoplatanus", "BAUMBEZEICHNUNG_DEUTSCH": "Bergahorn", "BAUMTYP": "Laub", "BEMERKUNG": null, "PFLANZJAHR": null, "ENTNAHMEJAHR": null, "BAUMPATENSCHAFT": null, "ALTERSKLASSIZIERUNG": "mittel", "OBJECTID": 291 }, "geometry": { "type": "Point", "coordinates": [ 15.496031852517532, 47.105008492935333 ] } },
{ "type": "Feature", "properties": { "NUMMER": 27354, "BAUMBEZEICHNUNG_BOTANISCH": "Aesculus hippocastanum", "BAUMBEZEICHNUNG_DEUTSCH": "Gemeine Roßkastanie", "BAUMTYP": "Laub", "BEMERKUNG": null, "PFLANZJAHR": "2007", "ENTNAHMEJAHR": null, "BAUMPATENSCHAFT": null, "ALTERSKLASSIZIERUNG": "jung", "OBJECTID": 292 }, "geometry": { "type": "Point", "coordinates": [ 15.442898879991768, 47.077348066077946 ] } },
{ "type": "Feature", "properties": { "NUMMER": 23279, "BAUMBEZEICHNUNG_BOTANISCH": "Picea abies", "BAUMBEZEICHNUNG_DEUTSCH": "Rotfichte", "BAUMTYP": "Nadel", "BEMERKUNG": null, "PFLANZJAHR": null, "ENTNAHMEJAHR": null, "BAUMPATENSCHAFT": null, "ALTERSKLASSIZIERUNG": "alt", "OBJECTID": 293 }, "geometry": { "type": "Point", "coordinates": [ 15.444470378178757, 47.05606433013768 ] } },
{ "type": "Feature", "properties": { "NUMMER": 23278, "BAUMBEZEICHNUNG_BOTANISCH": "Picea abies", "BAUMBEZEICHNUNG_DEUTSCH": "Rotfichte", "BAUMTYP": "Nadel", "BEMERKUNG": null, "PFLANZJAHR": null, "ENTNAHMEJAHR": null, "BAUMPATENSCHAFT": null, "ALTERSKLASSIZIERUNG": "alt", "OBJECTID": 294 }, "geometry": { "type": "Point", "coordinates": [ 15.444446960626744, 47.056053262874642 ] } },
{ "type": "Feature", "properties": { "NUMMER": 23256, "BAUMBEZEICHNUNG_BOTANISCH": "Picea abies", "BAUMBEZEICHNUNG_DEUTSCH": "Rotfichte", "BAUMTYP": "Nadel", "BEMERKUNG": null, "PFLANZJAHR": null, "ENTNAHMEJAHR": null, "BAUMPATENSCHAFT": null, "ALTERSKLASSIZIERUNG": "mittel", "OBJECTID": 295 }, "geometry": { "type": "Point", "coordinates": [ 15.444587376579165, 47.055899905324047 ] } },
{ "type": "Feature", "properties": { "NUMMER": 23255, "BAUMBEZEICHNUNG_BOTANISCH": "Prunus sp.", "BAUMBEZEICHNUNG_DEUTSCH": "Kirsche", "BAUMTYP": "Laub", "BEMERKUNG": null, "PFLANZJAHR": null, "ENTNAHMEJAHR": null, "BAUMPATENSCHAFT": null, "ALTERSKLASSIZIERUNG": "mittel", "OBJECTID": 296 }, "geometry": { "type": "Point", "coordinates": [ 15.444606911637765, 47.055886394787542 ] } },
{ "type": "Feature", "properties": { "NUMMER": 10501, "BAUMBEZEICHNUNG_BOTANISCH": "Populus nigra", "BAUMBEZEICHNUNG_DEUTSCH": "Schwarzpappel", "BAUMTYP": "Laub", "BEMERKUNG": null, "PFLANZJAHR": null, "ENTNAHMEJAHR": null, "BAUMPATENSCHAFT": null, "ALTERSKLASSIZIERUNG": "alt", "OBJECTID": 297 }, "geometry": { "type": "Point", "coordinates": [ 15.431399999691218, 47.049122461740119 ] } },
{ "type": "Feature", "properties": { "NUMMER": 10499, "BAUMBEZEICHNUNG_BOTANISCH": "Populus nigra", "BAUMBEZEICHNUNG_DEUTSCH": "Schwarzpappel", "BAUMTYP": "Laub", "BEMERKUNG": null, "PFLANZJAHR": null, "ENTNAHMEJAHR": null, "BAUMPATENSCHAFT": null, "ALTERSKLASSIZIERUNG": "mittel", "OBJECTID": 298 }, "geometry": { "type": "Point", "coordinates": [ 15.431534629203449, 47.049102537929485 ] } },
{ "type": "Feature", "properties": { "NUMMER": 10500, "BAUMBEZEICHNUNG_BOTANISCH": "Acer negundo", "BAUMBEZEICHNUNG_DEUTSCH": "Eschenahorn", "BAUMTYP": "Laub", "BEMERKUNG": null, "PFLANZJAHR": null, "ENTNAHMEJAHR": null, "BAUMPATENSCHAFT": null, "ALTERSKLASSIZIERUNG": "mittel", "OBJECTID": 299 }, "geometry": { "type": "Point", "coordinates": [ 15.431466493472966, 47.049112020227852 ] } },
{ "type": "Feature", "properties": { "NUMMER": 10494, "BAUMBEZEICHNUNG_BOTANISCH": "Betula pendula", "BAUMBEZEICHNUNG_DEUTSCH": "Sandbirke, Weißbirke", "BAUMTYP": "Laub", "BEMERKUNG": null, "PFLANZJAHR": null, "ENTNAHMEJAHR": null, "BAUMPATENSCHAFT": null, "ALTERSKLASSIZIERUNG": "mittel", "OBJECTID": 300 }, "geometry": { "type": "Point", "coordinates": [ 15.431694755605466, 47.04903207226409 ] } },
{ "type": "Feature", "properties": { "NUMMER": 10502, "BAUMBEZEICHNUNG_BOTANISCH": "Acer negundo", "BAUMBEZEICHNUNG_DEUTSCH": "Eschenahorn", "BAUMTYP": "Laub", "BEMERKUNG": null, "PFLANZJAHR": null, "ENTNAHMEJAHR": null, "BAUMPATENSCHAFT": null, "ALTERSKLASSIZIERUNG": "mittel", "OBJECTID": 301 }, "geometry": { "type": "Point", "coordinates": [ 15.431314486185093, 47.04912188148446 ] } },
{ "type": "Feature", "properties": { "NUMMER": 10505, "BAUMBEZEICHNUNG_BOTANISCH": "Populus nigra", "BAUMBEZEICHNUNG_DEUTSCH": "Schwarzpappel", "BAUMTYP": "Laub", "BEMERKUNG": null, "PFLANZJAHR": null, "ENTNAHMEJAHR": null, "BAUMPATENSCHAFT": null, "ALTERSKLASSIZIERUNG": "mittel", "OBJECTID": 302 }, "geometry": { "type": "Point", "coordinates": [ 15.431418529480736, 47.049061517119867 ] } },
{ "type": "Feature", "properties": { "NUMMER": 10692, "BAUMBEZEICHNUNG_BOTANISCH": "Picea omorica", "BAUMBEZEICHNUNG_DEUTSCH": "Omoriafichte, Serbische Fichte", "BAUMTYP": "Nadel", "BEMERKUNG": null, "PFLANZJAHR": null, "ENTNAHMEJAHR": null, "BAUMPATENSCHAFT": null, "ALTERSKLASSIZIERUNG": "mittel", "OBJECTID": 303 }, "geometry": { "type": "Point", "coordinates": [ 15.423316579264341, 47.099586141392244 ] } },
{ "type": "Feature", "properties": { "NUMMER": 24292, "BAUMBEZEICHNUNG_BOTANISCH": "Populus tremula", "BAUMBEZEICHNUNG_DEUTSCH": "Zitterpappel", "BAUMTYP": "Laub", "BEMERKUNG": null, "PFLANZJAHR": null, "ENTNAHMEJAHR": null, "BAUMPATENSCHAFT": null, "ALTERSKLASSIZIERUNG": "jung", "OBJECTID": 304 }, "geometry": { "type": "Point", "coordinates": [ 15.423160642344628, 47.099813986051913 ] } },
{ "type": "Feature", "properties": { "NUMMER": 10669, "BAUMBEZEICHNUNG_BOTANISCH": "Carpinus betulus", "BAUMBEZEICHNUNG_DEUTSCH": "Hain - oder Weißbuche", "BAUMTYP": "Laub", "BEMERKUNG": null, "PFLANZJAHR": null, "ENTNAHMEJAHR": null, "BAUMPATENSCHAFT": null, "ALTERSKLASSIZIERUNG": "mittel", "OBJECTID": 305 }, "geometry": { "type": "Point", "coordinates": [ 15.42335484187786, 47.099400479050715 ] } },
{ "type": "Feature", "properties": { "NUMMER": 10720, "BAUMBEZEICHNUNG_BOTANISCH": "Salix x smithiana", "BAUMBEZEICHNUNG_DEUTSCH": "Küblerweide", "BAUMTYP": "Laub", "BEMERKUNG": null, "PFLANZJAHR": null, "ENTNAHMEJAHR": null, "BAUMPATENSCHAFT": null, "ALTERSKLASSIZIERUNG": "mittel", "OBJECTID": 306 }, "geometry": { "type": "Point", "coordinates": [ 15.42307489273712, 47.09986176940096 ] } },
{ "type": "Feature", "properties": { "NUMMER": 23585, "BAUMBEZEICHNUNG_BOTANISCH": "Celtis australis", "BAUMBEZEICHNUNG_DEUTSCH": "Zürgel Baum", "BAUMTYP": "Laub", "BEMERKUNG": null, "PFLANZJAHR": "2002", "ENTNAHMEJAHR": null, "BAUMPATENSCHAFT": null, "ALTERSKLASSIZIERUNG": "jung", "OBJECTID": 308 }, "geometry": { "type": "Point", "coordinates": [ 15.452266970039954, 47.058790412829012 ] } },
{ "type": "Feature", "properties": { "NUMMER": 6037, "BAUMBEZEICHNUNG_BOTANISCH": "Aesculus hippocastanum", "BAUMBEZEICHNUNG_DEUTSCH": "Gemeine Roßkastanie", "BAUMTYP": "Laub", "BEMERKUNG": null, "PFLANZJAHR": null, "ENTNAHMEJAHR": null, "BAUMPATENSCHAFT": null, "ALTERSKLASSIZIERUNG": "alt", "OBJECTID": 414 }, "geometry": { "type": "Point", "coordinates": [ 15.438911849322162, 47.051560667137217 ] } },
{ "type": "Feature", "properties": { "NUMMER": 13215, "BAUMBEZEICHNUNG_BOTANISCH": "Acer platanoides", "BAUMBEZEICHNUNG_DEUTSCH": "Spitzahorn", "BAUMTYP": "Laub", "BEMERKUNG": null, "PFLANZJAHR": null, "ENTNAHMEJAHR": null, "BAUMPATENSCHAFT": null, "ALTERSKLASSIZIERUNG": "mittel", "OBJECTID": 415 }, "geometry": { "type": "Point", "coordinates": [ 15.429316210364078, 47.04663920871382 ] } },
{ "type": "Feature", "properties": { "NUMMER": 12509, "BAUMBEZEICHNUNG_BOTANISCH": "Tilia tomentosa", "BAUMBEZEICHNUNG_DEUTSCH": "Silberlinde", "BAUMTYP": "Laub", "BEMERKUNG": null, "PFLANZJAHR": "1983", "ENTNAHMEJAHR": null, "BAUMPATENSCHAFT": null, "ALTERSKLASSIZIERUNG": "mittel", "OBJECTID": 416 }, "geometry": { "type": "Point", "coordinates": [ 15.420626698835022, 47.077419154683227 ] } },
{ "type": "Feature", "properties": { "NUMMER": 14081, "BAUMBEZEICHNUNG_BOTANISCH": "Tilia cordata", "BAUMBEZEICHNUNG_DEUTSCH": "Winterlinde", "BAUMTYP": "Laub", "BEMERKUNG": null, "PFLANZJAHR": null, "ENTNAHMEJAHR": null, "BAUMPATENSCHAFT": null, "ALTERSKLASSIZIERUNG": "mittel", "OBJECTID": 419 }, "geometry": { "type": "Point", "coordinates": [ 15.421266769693878, 47.072676621609283 ] } },
{ "type": "Feature", "properties": { "NUMMER": 436, "BAUMBEZEICHNUNG_BOTANISCH": "Platanus x acerifolia", "BAUMBEZEICHNUNG_DEUTSCH": "Platane", "BAUMTYP": "Laub", "BEMERKUNG": null, "PFLANZJAHR": null, "ENTNAHMEJAHR": null, "BAUMPATENSCHAFT": null, "ALTERSKLASSIZIERUNG": "alt", "OBJECTID": 420 }, "geometry": { "type": "Point", "coordinates": [ 15.425652585351553, 47.07345501292891 ] } },
{ "type": "Feature", "properties": { "NUMMER": 12013, "BAUMBEZEICHNUNG_BOTANISCH": "Aesculus hippocastanum", "BAUMBEZEICHNUNG_DEUTSCH": "Gemeine Roßkastanie", "BAUMTYP": "Laub", "BEMERKUNG": null, "PFLANZJAHR": null, "ENTNAHMEJAHR": null, "BAUMPATENSCHAFT": null, "ALTERSKLASSIZIERUNG": "mittel", "OBJECTID": 422 }, "geometry": { "type": "Point", "coordinates": [ 15.416340948218854, 47.078682305400484 ] } },
{ "type": "Feature", "properties": { "NUMMER": 15026, "BAUMBEZEICHNUNG_BOTANISCH": "Tilia cordata", "BAUMBEZEICHNUNG_DEUTSCH": "Winterlinde", "BAUMTYP": "Laub", "BEMERKUNG": null, "PFLANZJAHR": "1986", "ENTNAHMEJAHR": null, "BAUMPATENSCHAFT": "Generaldirektor Dr. Rudolf Pieber, Steiermärkische Sparkasse", "ALTERSKLASSIZIERUNG": "mittel", "OBJECTID": 423 }, "geometry": { "type": "Point", "coordinates": [ 15.418920731921192, 47.077622087671891 ] } },
{ "type": "Feature", "properties": { "NUMMER": 12109, "BAUMBEZEICHNUNG_BOTANISCH": "Tilia x europaea", "BAUMBEZEICHNUNG_DEUTSCH": "Holländische Linde", "BAUMTYP": "Laub", "BEMERKUNG": null, "PFLANZJAHR": null, "ENTNAHMEJAHR": null, "BAUMPATENSCHAFT": null, "ALTERSKLASSIZIERUNG": "mittel", "OBJECTID": 425 }, "geometry": { "type": "Point", "coordinates": [ 15.417677229518763, 47.074856463555307 ] } },
{ "type": "Feature", "properties": { "NUMMER": 16107, "BAUMBEZEICHNUNG_BOTANISCH": "Aesculus hippocastanum", "BAUMBEZEICHNUNG_DEUTSCH": "Gemeine Roßkastanie", "BAUMTYP": "Laub", "BEMERKUNG": null, "PFLANZJAHR": null, "ENTNAHMEJAHR": null, "BAUMPATENSCHAFT": null, "ALTERSKLASSIZIERUNG": "mittel", "OBJECTID": 430 }, "geometry": { "type": "Point", "coordinates": [ 15.431832395205909, 47.078602301410619 ] } },
{ "type": "Feature", "properties": { "NUMMER": 22140, "BAUMBEZEICHNUNG_BOTANISCH": "Sophora japonica", "BAUMBEZEICHNUNG_DEUTSCH": "Schnurbaum", "BAUMTYP": "Laub", "BEMERKUNG": null, "PFLANZJAHR": null, "ENTNAHMEJAHR": null, "BAUMPATENSCHAFT": null, "ALTERSKLASSIZIERUNG": "mittel", "OBJECTID": 431 }, "geometry": { "type": "Point", "coordinates": [ 15.435238356335478, 47.07309580776586 ] } },
{ "type": "Feature", "properties": { "NUMMER": 22536, "BAUMBEZEICHNUNG_BOTANISCH": "Aesculus hippocastanum", "BAUMBEZEICHNUNG_DEUTSCH": "Gemeine Roßkastanie", "BAUMTYP": "Laub", "BEMERKUNG": null, "PFLANZJAHR": "1999", "ENTNAHMEJAHR": null, "BAUMPATENSCHAFT": null, "ALTERSKLASSIZIERUNG": "jung", "OBJECTID": 432 }, "geometry": { "type": "Point", "coordinates": [ 15.431219621234963, 47.07479281104083 ] } },
{ "type": "Feature", "properties": { "NUMMER": 16095, "BAUMBEZEICHNUNG_BOTANISCH": "Fraxinus excelsior 'Globosum'", "BAUMBEZEICHNUNG_DEUTSCH": "Kugelesche", "BAUMTYP": "Laub", "BEMERKUNG": null, "PFLANZJAHR": null, "ENTNAHMEJAHR": null, "BAUMPATENSCHAFT": null, "ALTERSKLASSIZIERUNG": "mittel", "OBJECTID": 433 }, "geometry": { "type": "Point", "coordinates": [ 15.432041267353739, 47.078188442634229 ] } },
{ "type": "Feature", "properties": { "NUMMER": 10202, "BAUMBEZEICHNUNG_BOTANISCH": "Tilia platyphyllos", "BAUMBEZEICHNUNG_DEUTSCH": "Sommerlinde", "BAUMTYP": "Laub", "BEMERKUNG": null, "PFLANZJAHR": null, "ENTNAHMEJAHR": null, "BAUMPATENSCHAFT": null, "ALTERSKLASSIZIERUNG": "mittel", "OBJECTID": 434 }, "geometry": { "type": "Point", "coordinates": [ 15.430895882737472, 47.074665212553356 ] } },
{ "type": "Feature", "properties": { "NUMMER": 3525, "BAUMBEZEICHNUNG_BOTANISCH": "Tilia platyphyllos", "BAUMBEZEICHNUNG_DEUTSCH": "Sommerlinde", "BAUMTYP": "Laub", "BEMERKUNG": null, "PFLANZJAHR": null, "ENTNAHMEJAHR": null, "BAUMPATENSCHAFT": null, "ALTERSKLASSIZIERUNG": "jung", "OBJECTID": 435 }, "geometry": { "type": "Point", "coordinates": [ 15.442724255095406, 47.078041660594494 ] } },
{ "type": "Feature", "properties": { "NUMMER": 8435, "BAUMBEZEICHNUNG_BOTANISCH": "Aesculus hippocastanum", "BAUMBEZEICHNUNG_DEUTSCH": "Gemeine Roßkastanie", "BAUMTYP": "Laub", "BEMERKUNG": null, "PFLANZJAHR": null, "ENTNAHMEJAHR": null, "BAUMPATENSCHAFT": "Prof. Dr. Franz Wolkinger", "ALTERSKLASSIZIERUNG": "jung", "OBJECTID": 436 }, "geometry": { "type": "Point", "coordinates": [ 15.454317801405923, 47.078620490100661 ] } },
{ "type": "Feature", "properties": { "NUMMER": 18246, "BAUMBEZEICHNUNG_BOTANISCH": "Robinia pseudoacacia 'Umbraculifera'", "BAUMBEZEICHNUNG_DEUTSCH": "Kugelakazie", "BAUMTYP": "Laub", "BEMERKUNG": null, "PFLANZJAHR": null, "ENTNAHMEJAHR": null, "BAUMPATENSCHAFT": null, "ALTERSKLASSIZIERUNG": "mittel", "OBJECTID": 437 }, "geometry": { "type": "Point", "coordinates": [ 15.407985868130671, 47.073324724873856 ] } },
{ "type": "Feature", "properties": { "NUMMER": 15145, "BAUMBEZEICHNUNG_BOTANISCH": "Acer pseudoplatanus", "BAUMBEZEICHNUNG_DEUTSCH": "Bergahorn", "BAUMTYP": "Laub", "BEMERKUNG": null, "PFLANZJAHR": null, "ENTNAHMEJAHR": null, "BAUMPATENSCHAFT": null, "ALTERSKLASSIZIERUNG": "mittel", "OBJECTID": 441 }, "geometry": { "type": "Point", "coordinates": [ 15.393627978735724, 47.067295527611527 ] } },
{ "type": "Feature", "properties": { "NUMMER": 15000, "BAUMBEZEICHNUNG_BOTANISCH": "Prunus serrulata 'Kanzan'", "BAUMBEZEICHNUNG_DEUTSCH": "Japanische Blütenkirsche", "BAUMTYP": "Laub", "BEMERKUNG": null, "PFLANZJAHR": "1987", "ENTNAHMEJAHR": null, "BAUMPATENSCHAFT": null, "ALTERSKLASSIZIERUNG": "mittel", "OBJECTID": 442 }, "geometry": { "type": "Point", "coordinates": [ 15.38831822649108, 47.063625310149774 ] } },
{ "type": "Feature", "properties": { "NUMMER": 14937, "BAUMBEZEICHNUNG_BOTANISCH": "Tilia tomentosa", "BAUMBEZEICHNUNG_DEUTSCH": "Silberlinde", "BAUMTYP": "Laub", "BEMERKUNG": null, "PFLANZJAHR": null, "ENTNAHMEJAHR": null, "BAUMPATENSCHAFT": null, "ALTERSKLASSIZIERUNG": "mittel", "OBJECTID": 443 }, "geometry": { "type": "Point", "coordinates": [ 15.390236058095953, 47.068145840845666 ] } },
{ "type": "Feature", "properties": { "NUMMER": 18226, "BAUMBEZEICHNUNG_BOTANISCH": "Populus nigra 'Italica'", "BAUMBEZEICHNUNG_DEUTSCH": "Säulenpappel", "BAUMTYP": "Laub", "BEMERKUNG": null, "PFLANZJAHR": null, "ENTNAHMEJAHR": null, "BAUMPATENSCHAFT": null, "ALTERSKLASSIZIERUNG": "mittel", "OBJECTID": 446 }, "geometry": { "type": "Point", "coordinates": [ 15.407605506406664, 47.074958299903962 ] } },
{ "type": "Feature", "properties": { "NUMMER": 23802, "BAUMBEZEICHNUNG_BOTANISCH": "Fraxinus excelsior 'Globosum'", "BAUMBEZEICHNUNG_DEUTSCH": "Kugelesche", "BAUMTYP": "Laub", "BEMERKUNG": null, "PFLANZJAHR": null, "ENTNAHMEJAHR": null, "BAUMPATENSCHAFT": null, "ALTERSKLASSIZIERUNG": "jung", "OBJECTID": 448 }, "geometry": { "type": "Point", "coordinates": [ 15.389298641297293, 47.066819940151383 ] } },
{ "type": "Feature", "properties": { "NUMMER": 11192, "BAUMBEZEICHNUNG_BOTANISCH": "Fraxinus excelsior 'Globosum'", "BAUMBEZEICHNUNG_DEUTSCH": "Kugelesche", "BAUMTYP": "Laub", "BEMERKUNG": null, "PFLANZJAHR": null, "ENTNAHMEJAHR": null, "BAUMPATENSCHAFT": null, "ALTERSKLASSIZIERUNG": "mittel", "OBJECTID": 449 }, "geometry": { "type": "Point", "coordinates": [ 15.404646471659257, 47.066547885066782 ] } },
{ "type": "Feature", "properties": { "NUMMER": 20350, "BAUMBEZEICHNUNG_BOTANISCH": "Acer platanoides", "BAUMBEZEICHNUNG_DEUTSCH": "Spitzahorn", "BAUMTYP": "Laub", "BEMERKUNG": null, "PFLANZJAHR": "1998", "ENTNAHMEJAHR": null, "BAUMPATENSCHAFT": null, "ALTERSKLASSIZIERUNG": "jung", "OBJECTID": 458 }, "geometry": { "type": "Point", "coordinates": [ 15.441471030931011, 47.0623278084677 ] } },
{ "type": "Feature", "properties": { "NUMMER": 20039, "BAUMBEZEICHNUNG_BOTANISCH": "Acer campestre", "BAUMBEZEICHNUNG_DEUTSCH": "Feldahorn", "BAUMTYP": "Laub", "BEMERKUNG": null, "PFLANZJAHR": null, "ENTNAHMEJAHR": null, "BAUMPATENSCHAFT": null, "ALTERSKLASSIZIERUNG": "mittel", "OBJECTID": 465 }, "geometry": { "type": "Point", "coordinates": [ 15.38616340691468, 47.050084142163371 ] } },
{ "type": "Feature", "properties": { "NUMMER": 2489, "BAUMBEZEICHNUNG_BOTANISCH": "Magnolia kobus", "BAUMBEZEICHNUNG_DEUTSCH": "Baummagnolie", "BAUMTYP": "Laub", "BEMERKUNG": null, "PFLANZJAHR": null, "ENTNAHMEJAHR": null, "BAUMPATENSCHAFT": null, "ALTERSKLASSIZIERUNG": "mittel", "OBJECTID": 466 }, "geometry": { "type": "Point", "coordinates": [ 15.44272797970978, 47.077103416396589 ] } },
{ "type": "Feature", "properties": { "NUMMER": 224, "BAUMBEZEICHNUNG_BOTANISCH": "Acer pseudoplatanus", "BAUMBEZEICHNUNG_DEUTSCH": "Bergahorn", "BAUMTYP": "Laub", "BEMERKUNG": null, "PFLANZJAHR": null, "ENTNAHMEJAHR": null, "BAUMPATENSCHAFT": null, "ALTERSKLASSIZIERUNG": "mittel", "OBJECTID": 467 },