{
"type": "FeatureCollection",
"crs": { "type": "name", "properties": { "name": "urn:ogc:def:crs:OGC:1.3:CRS84" } },
                                                                                
"features": [
{ "type": "Feature", "properties": { "OBJECTID": 385, "SAMMELSTELLENNAME": "Grillweg", "STRASSENNAME": "Grillweg", "HAUSNUMMER": "32", "BEZIRKS_NR": 16, "BEZIRKSNAME": "Straßgang", "LAGE": "gegenüber, Spiel- und Sportplatz", "ZEITEN": "Abgabemöglichkeit bis 19.01.2014", "LINK": "http:\/\/www.oekostadt.graz.at" }, "geometry": { "type": "Point", "coordinates": [ 15.40684209950383, 47.040070441598644 ] } },
{ "type": "Feature", "properties": { "OBJECTID": 386, "SAMMELSTELLENNAME": "Hackhofergasse", "STRASSENNAME": "Hackhofergasse", "HAUSNUMMER": "29", "BEZIRKS_NR": 16, "BEZIRKSNAME": "Straßgang", "LAGE": "gegenüber beim Spielplatz", "ZEITEN": "Abgabemöglichkeit bis 19.01.2014", "LINK": "http:\/\/www.oekostadt.graz.at" }, "geometry": { "type": "Point", "coordinates": [ 15.406062354705053, 47.041507750480775 ] } },
{ "type": "Feature", "properties": { "OBJECTID": 387, "SAMMELSTELLENNAME": "Straßganger Bad", "STRASSENNAME": "Hans-Hegenbarth-Allee", "HAUSNUMMER": "15", "BEZIRKS_NR": 16, "BEZIRKSNAME": "Straßgang", "LAGE": "gegenüber, Straßganger Bad", "ZEITEN": "Abgabemöglichkeit bis 19.01.2014", "LINK": "http:\/\/www.oekostadt.graz.at" }, "geometry": { "type": "Point", "coordinates": [ 15.397572316865901, 47.025604924874507 ] } },
{ "type": "Feature", "properties": { "OBJECTID": 388, "SAMMELSTELLENNAME": "Am Jägergrund", "STRASSENNAME": "Unterer Bründlweg", "HAUSNUMMER": "15", "BEZIRKS_NR": 16, "BEZIRKSNAME": "Straßgang", "LAGE": "Ecke Am Jägergrund, Sportplatz", "ZEITEN": "Abgabemöglichkeit bis 19.01.2014", "LINK": "http:\/\/www.oekostadt.graz.at" }, "geometry": { "type": "Point", "coordinates": [ 15.398777311250193, 47.041687024026963 ] } },
{ "type": "Feature", "properties": { "OBJECTID": 389, "SAMMELSTELLENNAME": "Hafnerstraße", "STRASSENNAME": "Hafnerstraße", "HAUSNUMMER": "36", "BEZIRKS_NR": 17, "BEZIRKSNAME": "Puntigam", "LAGE": "gegenüber im Park", "ZEITEN": "Abgabemöglichkeit bis 19.01.2014", "LINK": "http:\/\/www.oekostadt.graz.at" }, "geometry": { "type": "Point", "coordinates": [ 15.427671192235952, 47.026408224757667 ] } },
{ "type": "Feature", "properties": { "OBJECTID": 324, "SAMMELSTELLENNAME": "Lessingpark", "STRASSENNAME": "Lessingstraße", "HAUSNUMMER": "16", "BEZIRKS_NR": 2, "BEZIRKSNAME": "St. Leonhard", "LAGE": "gegenüber Lessingstraße 16 im Lessingpark", "ZEITEN": "Abgabemöglichkeit bis 19.01.2014", "LINK": "http:\/\/www.oekostadt.graz.at" }, "geometry": { "type": "Point", "coordinates": [ 15.450576321113962, 47.070821207081046 ] } },
{ "type": "Feature", "properties": { "OBJECTID": 330, "SAMMELSTELLENNAME": "Martha-Tausk-Park", "STRASSENNAME": "Lehargasse", "HAUSNUMMER": "22", "BEZIRKS_NR": 3, "BEZIRKSNAME": "Geidorf", "LAGE": "Lehargasse, Liliencrongasse, Martha-Tausk-Park", "ZEITEN": "Abgabemöglichkeit bis 19.01.2014", "LINK": "http:\/\/www.oekostadt.graz.at" }, "geometry": { "type": "Point", "coordinates": [ 15.427638253186705, 47.088337116293943 ] } },
{ "type": "Feature", "properties": { "OBJECTID": 337, "SAMMELSTELLENNAME": "Volksgarten", "STRASSENNAME": "Volksgartenstraße", "HAUSNUMMER": "28", "BEZIRKS_NR": 4, "BEZIRKSNAME": "Lend", "LAGE": "Ecke Mühlgasse\/Volksgartenstraße, Park", "ZEITEN": "Abgabemöglichkeit bis 19.01.2014", "LINK": "http:\/\/www.oekostadt.graz.at" }, "geometry": { "type": "Point", "coordinates": [ 15.429375767030974, 47.074244200120596 ] } },
{ "type": "Feature", "properties": { "OBJECTID": 346, "SAMMELSTELLENNAME": "Harmsdorfpark", "STRASSENNAME": "Harmsdorfgasse", "HAUSNUMMER": "16", "BEZIRKS_NR": 6, "BEZIRKSNAME": "Jakomini", "LAGE": "Auf Höhe Harmsdorfgasse 16 im Park", "ZEITEN": "Abgabemöglichkeit bis 19.01.2014", "LINK": "http:\/\/www.oekostadt.graz.at" }, "geometry": { "type": "Point", "coordinates": [ 15.457187296780209, 47.050924280833534 ] } },
{ "type": "Feature", "properties": { "OBJECTID": 326, "SAMMELSTELLENNAME": "Tegetthofplatz", "STRASSENNAME": "Seebachergasse", "HAUSNUMMER": "11", "BEZIRKS_NR": 2, "BEZIRKSNAME": "St. Leonhard", "LAGE": "Ecke Elisabethstraße-Seebachergasse", "ZEITEN": "Abgabemöglichkeit bis 19.01.2014", "LINK": "http:\/\/www.oekostadt.graz.at" }, "geometry": { "type": "Point", "coordinates": [ 15.459411964900829, 47.076960273330542 ] } },
{ "type": "Feature", "properties": { "OBJECTID": 341, "SAMMELSTELLENNAME": "Rösselmühlpark", "STRASSENNAME": "Dreihackengasse", "HAUSNUMMER": "43", "BEZIRKS_NR": 5, "BEZIRKSNAME": "Gries", "LAGE": "Rösselmühlpark (Ostseite), Dreihackengasse", "ZEITEN": "Abgabemöglichkeit bis 19.01.2014", "LINK": "http:\/\/www.oekostadt.graz.at" }, "geometry": { "type": "Point", "coordinates": [ 15.428704080592887, 47.066341126554441 ] } },
{ "type": "Feature", "properties": { "OBJECTID": 345, "SAMMELSTELLENNAME": "Augarten", "STRASSENNAME": "Friedrichgasse", "HAUSNUMMER": "37", "BEZIRKS_NR": 6, "BEZIRKSNAME": "Jakomini", "LAGE": "Ecke Friedrichgasse\/Schießstattgasse im Augarten", "ZEITEN": "Abgabemöglichkeit bis 19.01.2014", "LINK": "http:\/\/www.oekostadt.graz.at" }, "geometry": { "type": "Point", "coordinates": [ 15.437075029320756, 47.062726624263142 ] } },
{ "type": "Feature", "properties": { "OBJECTID": 363, "SAMMELSTELLENNAME": "Weinzödl", "STRASSENNAME": "Weinzödl", "HAUSNUMMER": "1", "BEZIRKS_NR": 12, "BEZIRKSNAME": "Andritz", "LAGE": "GAK-Trainingszentrum, Christbaumverkaufsstelle", "ZEITEN": "Abgabemöglichkeit bis 19.01.2014", "LINK": "http:\/\/www.oekostadt.graz.at" }, "geometry": { "type": "Point", "coordinates": [ 15.402006528411659, 47.108093407137069 ] } },
{ "type": "Feature", "properties": { "OBJECTID": 372, "SAMMELSTELLENNAME": "Algersdorfer Straße", "STRASSENNAME": "Algersdorfer Straße", "HAUSNUMMER": "59", "BEZIRKS_NR": 14, "BEZIRKSNAME": "Eggenberg", "LAGE": "Ecke Algersdorfer Straße\/Zufahrt LKH West", "ZEITEN": "Abgabemöglichkeit bis 19.01.2014", "LINK": "http:\/\/www.oekostadt.graz.at" }, "geometry": { "type": "Point", "coordinates": [ 15.402347900740795, 47.078198217879127 ] } },
{ "type": "Feature", "properties": { "OBJECTID": 359, "SAMMELSTELLENNAME": "Hilmteichstraße", "STRASSENNAME": "Hilmteichstraße", "HAUSNUMMER": "108", "BEZIRKS_NR": 11, "BEZIRKSNAME": "Mariatrost", "LAGE": "Ecke Auersperggasse - Aufgang Waldschule", "ZEITEN": "Abgabemöglichkeit bis 19.01.2014", "LINK": "http:\/\/www.oekostadt.graz.at" }, "geometry": { "type": "Point", "coordinates": [ 15.460351048362664, 47.082695613746971 ] } },
{ "type": "Feature", "properties": { "OBJECTID": 364, "SAMMELSTELLENNAME": "Weinzöttlstraße ", "STRASSENNAME": "Weinzöttlstraße", "HAUSNUMMER": "1", "BEZIRKS_NR": 12, "BEZIRKSNAME": "Andritz", "LAGE": "Grünfläche neben Besucherparkplätzen - Weinzöttlstraße 1", "ZEITEN": "Abgabemöglichkeit bis 19.01.2014", "LINK": "http:\/\/www.oekostadt.graz.at" }, "geometry": { "type": "Point", "coordinates": [ 15.417613538412082, 47.098410675340929 ] } },
{ "type": "Feature", "properties": { "OBJECTID": 373, "SAMMELSTELLENNAME": "Gaswerkstraße", "STRASSENNAME": "Gaswerkstraße", "HAUSNUMMER": "13", "BEZIRKS_NR": 14, "BEZIRKSNAME": "Eggenberg", "LAGE": "Gaswerkstraße gegenüber HNR 13 im Gemeindepark", "ZEITEN": "Abgabemöglichkeit bis 19.01.2014", "LINK": "http:\/\/www.oekostadt.graz.at" }, "geometry": { "type": "Point", "coordinates": [ 15.402855358017916, 47.068634449956484 ] } },
{ "type": "Feature", "properties": { "OBJECTID": 357, "SAMMELSTELLENNAME": "Berliner Ring", "STRASSENNAME": "Berliner Ring", "HAUSNUMMER": "71", "BEZIRKS_NR": 9, "BEZIRKSNAME": "Waltendorf", "LAGE": "Zufahrt zu den Häusern 71-73-75, Spielplatz", "ZEITEN": "Abgabemöglichkeit bis 19.01.2014", "LINK": "http:\/\/www.oekostadt.graz.at" }, "geometry": { "type": "Point", "coordinates": [ 15.49680824342586, 47.076328142121902 ] } },
{ "type": "Feature", "properties": { "OBJECTID": 342, "SAMMELSTELLENNAME": "Hammer-Purgstall-Gasse", "STRASSENNAME": "Siebenundvierzigergasse", "HAUSNUMMER": "21", "BEZIRKS_NR": 5, "BEZIRKSNAME": "Gries", "LAGE": "gegenüber Siebenundvierzigergasse 21 im Park, Ecke Hammer-Purgstall-Gasse\/Siebenundvierzigergasse", "ZEITEN": "Abgabemöglichkeit bis 19.01.2014", "LINK": "http:\/\/www.oekostadt.graz.at" }, "geometry": { "type": "Point", "coordinates": [ 15.424636585726388, 47.049008561577253 ] } },
{ "type": "Feature", "properties": { "OBJECTID": 376, "SAMMELSTELLENNAME": "Straßganger Straße", "STRASSENNAME": "Pfarrgasse", "HAUSNUMMER": "26", "BEZIRKS_NR": 14, "BEZIRKSNAME": "Eggenberg", "LAGE": "Ecke Straßganger Straße\/Pfarrgasse, Sportplatz", "ZEITEN": "Abgabemöglichkeit bis 19.01.2014", "LINK": "http:\/\/www.oekostadt.graz.at" }, "geometry": { "type": "Point", "coordinates": [ 15.397979687776294, 47.068036485900514 ] } },
{ "type": "Feature", "properties": { "OBJECTID": 327, "SAMMELSTELLENNAME": "Stadtpark Nord", "STRASSENNAME": "Glacisstraße", "HAUSNUMMER": "1", "BEZIRKS_NR": 3, "BEZIRKSNAME": "Geidorf", "LAGE": "Ecke Maria-Theresia-Allee-Glacisstraße", "ZEITEN": "Abgabemöglichkeit bis 19.01.2014", "LINK": "http:\/\/www.oekostadt.graz.at" }, "geometry": { "type": "Point", "coordinates": [ 15.443315424662417, 47.077498880805585 ] } },
{ "type": "Feature", "properties": { "OBJECTID": 325, "SAMMELSTELLENNAME": "Schillerplatz", "STRASSENNAME": "Schillerplatz", "HAUSNUMMER": "1", "BEZIRKS_NR": 2, "BEZIRKSNAME": "St. Leonhard", "LAGE": "beim Taxi Standplatz", "ZEITEN": "Abgabemöglichkeit bis 19.01.2014", "LINK": "http:\/\/www.oekostadt.graz.at" }, "geometry": { "type": "Point", "coordinates": [ 15.45906067537053, 47.068932069706101 ] } },
{ "type": "Feature", "properties": { "OBJECTID": 339, "SAMMELSTELLENNAME": "Auf der Tändelwiese", "STRASSENNAME": "Auf der Tändelwiese", "HAUSNUMMER": "4", "BEZIRKS_NR": 5, "BEZIRKSNAME": "Gries", "LAGE": "im Park neben der BAWAG", "ZEITEN": "Abgabemöglichkeit bis 19.01.2014", "LINK": "http:\/\/www.oekostadt.graz.at" }, "geometry": { "type": "Point", "coordinates": [ 15.431819796220553, 47.052109553548625 ] } },
{ "type": "Feature", "properties": { "OBJECTID": 352, "SAMMELSTELLENNAME": "Fuchsenfeldweg", "STRASSENNAME": "Fuchsenfeldweg", "HAUSNUMMER": "25", "BEZIRKS_NR": 7, "BEZIRKSNAME": "Liebenau", "LAGE": "beim Therapiezentraum, am Ende der Sackgasse", "ZEITEN": "Abgabemöglichkeit bis 19.01.2014", "LINK": "http:\/\/www.oekostadt.graz.at" }, "geometry": { "type": "Point", "coordinates": [ 15.475724230092631, 47.023550356053548 ] } },
{ "type": "Feature", "properties": { "OBJECTID": 366, "SAMMELSTELLENNAME": "Augasse 100", "STRASSENNAME": "Augasse", "HAUSNUMMER": "100", "BEZIRKS_NR": 13, "BEZIRKSNAME": "Gösting", "LAGE": "Westseite vom Pongratz Moore Steg", "ZEITEN": "Abgabemöglichkeit bis 19.01.2014", "LINK": "http:\/\/www.oekostadt.graz.at" }, "geometry": { "type": "Point", "coordinates": [ 15.416242262479345, 47.09518888573637 ] } },
{ "type": "Feature", "properties": { "OBJECTID": 381, "SAMMELSTELLENNAME": "Josef-Posch-Straße", "STRASSENNAME": "Josef-Posch-Straße", "HAUSNUMMER": "121", "BEZIRKS_NR": 15, "BEZIRKSNAME": "Wetzelsdorf", "LAGE": "Ecke Burenstraße, Grünfläche", "ZEITEN": "Abgabemöglichkeit bis 19.01.2014", "LINK": "http:\/\/www.oekostadt.graz.at" }, "geometry": { "type": "Point", "coordinates": [ 15.392291905359311, 47.05435509662788 ] } },
{ "type": "Feature", "properties": { "OBJECTID": 379, "SAMMELSTELLENNAME": "Abstallerstraße", "STRASSENNAME": "Abstallerstraße", "HAUSNUMMER": "41", "BEZIRKS_NR": 15, "BEZIRKSNAME": "Wetzelsdorf", "LAGE": "Kreuzung Wilhelm-Thöny-Weg, Hundewiese", "ZEITEN": "Abgabemöglichkeit bis 19.01.2014", "LINK": "http:\/\/www.oekostadt.graz.at" }, "geometry": { "type": "Point", "coordinates": [ 15.398525253715363, 47.050312234277825 ] } },
{ "type": "Feature", "properties": { "OBJECTID": 384, "SAMMELSTELLENNAME": "Straßganger Straße", "STRASSENNAME": "Straßganger Straße", "HAUSNUMMER": "210", "BEZIRKS_NR": 15, "BEZIRKSNAME": "Wetzelsdorf", "LAGE": "Straßganger Straße 210", "ZEITEN": "Abgabemöglichkeit bis 19.01.2014", "LINK": "http:\/\/www.oekostadt.graz.at" }, "geometry": { "type": "Point", "coordinates": [ 15.394579997151952, 47.050036402074184 ] } },
{ "type": "Feature", "properties": { "OBJECTID": 378, "SAMMELSTELLENNAME": "Vinzenzgasse", "STRASSENNAME": "Vinzenzgasse", "HAUSNUMMER": "49", "BEZIRKS_NR": 14, "BEZIRKSNAME": "Eggenberg", "LAGE": "Bezirkssportplatz (Südseite)", "ZEITEN": "Abgabemöglichkeit bis 19.01.2014", "LINK": "http:\/\/www.oekostadt.graz.at" }, "geometry": { "type": "Point", "coordinates": [ 15.404745831988688, 47.075820012060305 ] } },
{ "type": "Feature", "properties": { "OBJECTID": 335, "SAMMELSTELLENNAME": "Kalvariengürtel", "STRASSENNAME": "Kalvariengürtel", "HAUSNUMMER": "1", "BEZIRKS_NR": 4, "BEZIRKSNAME": "Lend", "LAGE": "Ecke Kalvariengürtel\/Floßlendstraße", "ZEITEN": "Abgabemöglichkeit bis 19.01.2014", "LINK": "http:\/\/www.oekostadt.graz.at" }, "geometry": { "type": "Point", "coordinates": [ 15.42224153319531, 47.086758552631466 ] } },
{ "type": "Feature", "properties": { "OBJECTID": 321, "SAMMELSTELLENNAME": "Felix-Dahn-Platz", "STRASSENNAME": "Felix-Dahn-Platz", "HAUSNUMMER": "12", "BEZIRKS_NR": 2, "BEZIRKSNAME": "St. Leonhard", "LAGE": "vor Haus Felix-Dahn-Platz 12", "ZEITEN": "Abgabemöglichkeit bis 19.01.2014", "LINK": "http:\/\/www.oekostadt.graz.at" }, "geometry": { "type": "Point", "coordinates": [ 15.453130486252098, 47.066137952656796 ] } },
{ "type": "Feature", "properties": { "OBJECTID": 322, "SAMMELSTELLENNAME": "Stadtpark Süd", "STRASSENNAME": "Glacisstraße", "HAUSNUMMER": "69", "BEZIRKS_NR": 2, "BEZIRKSNAME": "St. Leonhard", "LAGE": "Ecke Franz-Graf-Allee, Glacisstraße", "ZEITEN": "Abgabemöglichkeit bis 19.01.2014", "LINK": "http:\/\/www.oekostadt.graz.at" }, "geometry": { "type": "Point", "coordinates": [ 15.446430891551287, 47.069224189526381 ] } },
{ "type": "Feature", "properties": { "OBJECTID": 343, "SAMMELSTELLENNAME": "St.-Andräplatz", "STRASSENNAME": "Kernstockgasse", "HAUSNUMMER": "14", "BEZIRKS_NR": 5, "BEZIRKSNAME": "Gries", "LAGE": "gegenüber Kernstockgasse 14", "ZEITEN": "Abgabemöglichkeit bis 19.01.2014", "LINK": "http:\/\/www.oekostadt.graz.at" }, "geometry": { "type": "Point", "coordinates": [ 15.429546733964889, 47.069763210520186 ] } },
{ "type": "Feature", "properties": { "OBJECTID": 367, "SAMMELSTELLENNAME": "Augasse 110", "STRASSENNAME": "Augasse", "HAUSNUMMER": "110", "BEZIRKS_NR": 13, "BEZIRKSNAME": "Gösting", "LAGE": "hinter der Firma Schlecker", "ZEITEN": "Abgabemöglichkeit bis 19.01.2014", "LINK": "http:\/\/www.oekostadt.graz.at" }, "geometry": { "type": "Point", "coordinates": [ 15.413983116364481, 47.095427948107137 ] } },
{ "type": "Feature", "properties": { "OBJECTID": 369, "SAMMELSTELLENNAME": "Raach", "STRASSENNAME": "Raachgasse", "HAUSNUMMER": "60", "BEZIRKS_NR": 13, "BEZIRKSNAME": "Gösting", "LAGE": "Bushaltestelle, Raach-Ort, Raachgasse", "ZEITEN": "Abgabemöglichkeit bis 19.01.2014", "LINK": "http:\/\/www.oekostadt.graz.at" }, "geometry": { "type": "Point", "coordinates": [ 15.374241929988733, 47.111260067725361 ] } },
{ "type": "Feature", "properties": { "OBJECTID": 351, "SAMMELSTELLENNAME": "Eichbachgasse", "STRASSENNAME": "Eichbachgasse", "HAUSNUMMER": "167a", "BEZIRKS_NR": 7, "BEZIRKSNAME": "Liebenau", "LAGE": "beim Autoabstellplatz vor der Autobahn", "ZEITEN": "Abgabemöglichkeit bis 19.01.2014", "LINK": "http:\/\/www.oekostadt.graz.at" }, "geometry": { "type": "Point", "coordinates": [ 15.463396669805714, 47.01563511172143 ] } },
{ "type": "Feature", "properties": { "OBJECTID": 353, "SAMMELSTELLENNAME": "Messendorfer Straße", "STRASSENNAME": "Leo-Scheu-Gasse", "HAUSNUMMER": "1", "BEZIRKS_NR": 7, "BEZIRKSNAME": "Liebenau", "LAGE": "Ecke Messendorfer Straße\/Leo-Scheu-Gasse", "ZEITEN": "Abgabemöglichkeit bis 19.01.2014", "LINK": "http:\/\/www.oekostadt.graz.at" }, "geometry": { "type": "Point", "coordinates": [ 15.46911448328418, 47.036204471505734 ] } },
{ "type": "Feature", "properties": { "OBJECTID": 328, "SAMMELSTELLENNAME": "Hasnerplatz", "STRASSENNAME": "Hasnerplatz", "HAUSNUMMER": "11", "BEZIRKS_NR": 3, "BEZIRKSNAME": "Geidorf", "LAGE": "gegenüber Hasnerplatz 11 vor Kinderspielplatz", "ZEITEN": "Abgabemöglichkeit bis 19.01.2014", "LINK": "http:\/\/www.oekostadt.graz.at" }, "geometry": { "type": "Point", "coordinates": [ 15.434181298158254, 47.082884288399065 ] } },
{ "type": "Feature", "properties": { "OBJECTID": 331, "SAMMELSTELLENNAME": "Fröbelpark", "STRASSENNAME": "Am Fröbelpark", "HAUSNUMMER": "4", "BEZIRKS_NR": 4, "BEZIRKSNAME": "Lend", "LAGE": "gegenüber Am Fröbelpark 5 bei Altstoffsammelstelle", "ZEITEN": "Abgabemöglichkeit bis 19.01.2014", "LINK": "http:\/\/www.oekostadt.graz.at" }, "geometry": { "type": "Point", "coordinates": [ 15.41923340852583, 47.083516984680188 ] } },
{ "type": "Feature", "properties": { "OBJECTID": 332, "SAMMELSTELLENNAME": "Metahofpark", "STRASSENNAME": "Babenbergerstraße", "HAUSNUMMER": "10", "BEZIRKS_NR": 4, "BEZIRKSNAME": "Lend", "LAGE": "Zufahrt zu Haus Babenbergerstraße 10", "ZEITEN": "Abgabemöglichkeit bis 19.01.2014", "LINK": "http:\/\/www.oekostadt.graz.at" }, "geometry": { "type": "Point", "coordinates": [ 15.420965215400436, 47.072757514456661 ] } },
{ "type": "Feature", "properties": { "OBJECTID": 334, "SAMMELSTELLENNAME": "Floßlendplatz", "STRASSENNAME": "Floßlendplatz", "HAUSNUMMER": "3", "BEZIRKS_NR": 4, "BEZIRKSNAME": "Lend", "LAGE": "gegenüber Floßlendplatz 3, Ecke Floßlendstraße", "ZEITEN": "Abgabemöglichkeit bis 19.01.2014", "LINK": "http:\/\/www.oekostadt.graz.at" }, "geometry": { "type": "Point", "coordinates": [ 15.425213915934922, 47.083501351517945 ] } },
{ "type": "Feature", "properties": { "OBJECTID": 336, "SAMMELSTELLENNAME": "Laudongasse", "STRASSENNAME": "Laudongasse", "HAUSNUMMER": "22", "BEZIRKS_NR": 4, "BEZIRKSNAME": "Lend", "LAGE": "Wiese vor dem Sportplatz (Haus 22d)", "ZEITEN": "Abgabemöglichkeit bis 19.01.2014", "LINK": "http:\/\/www.oekostadt.graz.at" }, "geometry": { "type": "Point", "coordinates": [ 15.408936054105464, 47.073595557169739 ] } },
{ "type": "Feature", "properties": { "OBJECTID": 338, "SAMMELSTELLENNAME": "Waagner-Biro-Straße", "STRASSENNAME": "Waagner-Biro-Straße", "HAUSNUMMER": "30b", "BEZIRKS_NR": 4, "BEZIRKSNAME": "Lend", "LAGE": "Ecke Laudongasse\/Waagner-Biro-Straße", "ZEITEN": "Abgabemöglichkeit bis 19.01.2014", "LINK": "http:\/\/www.oekostadt.graz.at" }, "geometry": { "type": "Point", "coordinates": [ 15.413753691276119, 47.073644338798125 ] } },
{ "type": "Feature", "properties": { "OBJECTID": 340, "SAMMELSTELLENNAME": "Bozener Straße", "STRASSENNAME": "Bozener Straße", "HAUSNUMMER": "19", "BEZIRKS_NR": 5, "BEZIRKSNAME": "Gries", "LAGE": "Ecke Bozener Straße\/Sechsundzwanziger-Schützen-Gasse", "ZEITEN": "Abgabemöglichkeit bis 19.01.2014", "LINK": "http:\/\/www.oekostadt.graz.at" }, "geometry": { "type": "Point", "coordinates": [ 15.425570803781872, 47.050591424861153 ] } },
{ "type": "Feature", "properties": { "OBJECTID": 323, "SAMMELSTELLENNAME": "Hans-Brandstetter-Gasse", "STRASSENNAME": "Hans-Brandstetter-Gasse", "HAUSNUMMER": "25", "BEZIRKS_NR": 2, "BEZIRKSNAME": "St. Leonhard", "LAGE": "gegenüber, Grünfläche bei der Einfahrt zur Schule", "ZEITEN": "Abgabemöglichkeit bis 19.01.2014", "LINK": "http:\/\/www.oekostadt.graz.at" }, "geometry": { "type": "Point", "coordinates": [ 15.46631536888164, 47.061106888609118 ] } },
{ "type": "Feature", "properties": { "OBJECTID": 344, "SAMMELSTELLENNAME": "Am Langedelwehr", "STRASSENNAME": "Am Langedelwehr", "HAUSNUMMER": "28", "BEZIRKS_NR": 6, "BEZIRKSNAME": "Jakomini", "LAGE": "Ecke Am Langedelwehr\/Neulandgasse, Kinderspielplatz", "ZEITEN": "Abgabemöglichkeit bis 19.01.2014", "LINK": "http:\/\/www.oekostadt.graz.at" }, "geometry": { "type": "Point", "coordinates": [ 15.438336389866599, 47.053362830674615 ] } },
{ "type": "Feature", "properties": { "OBJECTID": 347, "SAMMELSTELLENNAME": "Jakominigürtel", "STRASSENNAME": "Jakominigürtel", "HAUSNUMMER": "20", "BEZIRKS_NR": 6, "BEZIRKSNAME": "Jakomini", "LAGE": "Ecke Klosterwiesgasse\/Jakominigürtel", "ZEITEN": "Abgabemöglichkeit bis 19.01.2014", "LINK": "http:\/\/www.oekostadt.graz.at" }, "geometry": { "type": "Point", "coordinates": [ 15.447975392797204, 47.059698655333143 ] } },
{ "type": "Feature", "properties": { "OBJECTID": 348, "SAMMELSTELLENNAME": "Münzgrabengürtel", "STRASSENNAME": "Münzgrabengürtel", "HAUSNUMMER": "18", "BEZIRKS_NR": 6, "BEZIRKSNAME": "Jakomini", "LAGE": "bei Altstoffsammelstelle - Sportplatz", "ZEITEN": "Abgabemöglichkeit bis 19.01.2014", "LINK": "http:\/\/www.oekostadt.graz.at" }, "geometry": { "type": "Point", "coordinates": [ 15.454329088661714, 47.061906288763936 ] } },
{ "type": "Feature", "properties": { "OBJECTID": 350, "SAMMELSTELLENNAME": "Andersengasse", "STRASSENNAME": "Andersengasse", "HAUSNUMMER": "52", "BEZIRKS_NR": 7, "BEZIRKSNAME": "Liebenau", "LAGE": "Ecke  Dr. Plochl Straße\/Andersengasse, Sportplatz", "ZEITEN": "Abgabemöglichkeit bis 19.01.2014", "LINK": "http:\/\/www.oekostadt.graz.at" }, "geometry": { "type": "Point", "coordinates": [ 15.444648085571194, 47.046215612608918 ] } },
{ "type": "Feature", "properties": { "OBJECTID": 370, "SAMMELSTELLENNAME": "Schippingerstraße 19", "STRASSENNAME": "Schippingerstraße", "HAUSNUMMER": "19", "BEZIRKS_NR": 13, "BEZIRKSNAME": "Gösting", "LAGE": "bei der Telefonzelle", "ZEITEN": "Abgabemöglichkeit bis 19.01.2014", "LINK": "http:\/\/www.oekostadt.graz.at" }, "geometry": { "type": "Point", "coordinates": [ 15.409608202282344, 47.092412218415816 ] } },
{ "type": "Feature", "properties": { "OBJECTID": 371, "SAMMELSTELLENNAME": "Bischofssiedlung", "STRASSENNAME": "Wiener Straße", "HAUSNUMMER": "260", "BEZIRKS_NR": 13, "BEZIRKSNAME": "Gösting", "LAGE": "Bischofssiedlung, öffentlicher Kinderspielplatz, südlich vom SPAR", "ZEITEN": "Abgabemöglichkeit bis 19.01.2014", "LINK": "http:\/\/www.oekostadt.graz.at" }, "geometry": { "type": "Point", "coordinates": [ 15.406358346472611, 47.095073033488539 ] } },
{ "type": "Feature", "properties": { "OBJECTID": 374, "SAMMELSTELLENNAME": "Koloniegasse", "STRASSENNAME": "Karl-Frisch-Gasse", "HAUSNUMMER": "18", "BEZIRKS_NR": 14, "BEZIRKSNAME": "Eggenberg", "LAGE": "Ecke Koloniegasse\/Karl-Frisch-Gasse,  Grünfläche", "ZEITEN": "Abgabemöglichkeit bis 19.01.2014", "LINK": "http:\/\/www.oekostadt.graz.at" }, "geometry": { "type": "Point", "coordinates": [ 15.399254940074366, 47.064709884034585 ] } },
{ "type": "Feature", "properties": { "OBJECTID": 375, "SAMMELSTELLENNAME": "Hofbauerplatz", "STRASSENNAME": "Karl-Morre-Straße", "HAUSNUMMER": "6", "BEZIRKS_NR": 14, "BEZIRKSNAME": "Eggenberg", "LAGE": "südlicher Bereich des Hofbauerplatz", "ZEITEN": "Abgabemöglichkeit bis 19.01.2014", "LINK": "http:\/\/www.oekostadt.graz.at" }, "geometry": { "type": "Point", "coordinates": [ 15.402680169703217, 47.072443489831322 ] } },
{ "type": "Feature", "properties": { "OBJECTID": 356, "SAMMELSTELLENNAME": "St.-Peter-Pfarrweg", "STRASSENNAME": "St.-Peter-Pfarrweg", "HAUSNUMMER": "30", "BEZIRKS_NR": 8, "BEZIRKSNAME": "St. Peter", "LAGE": "gegenüber, Problemstoffsammelstelle", "ZEITEN": "Abgabemöglichkeit bis 19.01.2014", "LINK": "http:\/\/www.oekostadt.graz.at" }, "geometry": { "type": "Point", "coordinates": [ 15.472498282095192, 47.061853154281678 ] } },
{ "type": "Feature", "properties": { "OBJECTID": 358, "SAMMELSTELLENNAME": "Billrothgasse", "STRASSENNAME": "Billrothgasse", "HAUSNUMMER": "32", "BEZIRKS_NR": 10, "BEZIRKSNAME": "Ries", "LAGE": "gegenüber Billrothgasse 32, beim Spielplatz bzw. Fußgängerübergang", "ZEITEN": "Abgabemöglichkeit bis 19.01.2014", "LINK": "http:\/\/www.oekostadt.graz.at" }, "geometry": { "type": "Point", "coordinates": [ 15.471955444042919, 47.080757951552712 ] } },
{ "type": "Feature", "properties": { "OBJECTID": 360, "SAMMELSTELLENNAME": "Mariatrost - Tannhofweg", "STRASSENNAME": "Kirchbergstraße", "HAUSNUMMER": "4", "BEZIRKS_NR": 11, "BEZIRKSNAME": "Mariatrost", "LAGE": "Ecke Erich Edegger Weg\/Tannhofweg beim Bezirkssportplatz", "ZEITEN": "Abgabemöglichkeit bis 19.01.2014", "LINK": "http:\/\/www.oekostadt.graz.at" }, "geometry": { "type": "Point", "coordinates": [ 15.490119899055406, 47.104723641693475 ] } },
{ "type": "Feature", "properties": { "OBJECTID": 361, "SAMMELSTELLENNAME": "Inge-Morath-Straße", "STRASSENNAME": "Inge-Morath-Straße", "HAUSNUMMER": "50", "BEZIRKS_NR": 12, "BEZIRKSNAME": "Andritz", "LAGE": "bei der Abfallsammelstelle", "ZEITEN": "Abgabemöglichkeit bis 19.01.2014", "LINK": "http:\/\/www.oekostadt.graz.at" }, "geometry": { "type": "Point", "coordinates": [ 15.432722828179781, 47.099549908003567 ] } },
{ "type": "Feature", "properties": { "OBJECTID": 362, "SAMMELSTELLENNAME": "Prochaskagasse", "STRASSENNAME": "Prochaskagasse", "HAUSNUMMER": "15", "BEZIRKS_NR": 12, "BEZIRKSNAME": "Andritz", "LAGE": "Park beim Schöckelbach", "ZEITEN": "Abgabemöglichkeit bis 19.01.2014", "LINK": "http:\/\/www.oekostadt.graz.at" }, "geometry": { "type": "Point", "coordinates": [ 15.424991395845446, 47.107544039582457 ] } },
{ "type": "Feature", "properties": { "OBJECTID": 377, "SAMMELSTELLENNAME": "Straßganger Straße\/ÖAMTC", "STRASSENNAME": "Straßganger Straße", "HAUSNUMMER": "88", "BEZIRKS_NR": 14, "BEZIRKSNAME": "Eggenberg", "LAGE": "hinter ÖAMTC", "ZEITEN": "Abgabemöglichkeit bis 19.01.2014", "LINK": "http:\/\/www.oekostadt.graz.at" }, "geometry": { "type": "Point", "coordinates": [ 15.396184239669736, 47.060758753482574 ] } },
{ "type": "Feature", "properties": { "OBJECTID": 382, "SAMMELSTELLENNAME": "Peter-Rosegger-Straße", "STRASSENNAME": "Peter-Rosegger-Straße", "HAUSNUMMER": "81", "BEZIRKS_NR": 15, "BEZIRKSNAME": "Wetzelsdorf", "LAGE": "Ecke Faunastraße vor der Bahnübersetzung", "ZEITEN": "Abgabemöglichkeit bis 19.01.2014", "LINK": "http:\/\/www.oekostadt.graz.at" }, "geometry": { "type": "Point", "coordinates": [ 15.402046928788184, 47.051977098195678 ] } },
{ "type": "Feature", "properties": { "OBJECTID": 383, "SAMMELSTELLENNAME": "Steinäckerstraße", "STRASSENNAME": "Schererstraße", "HAUSNUMMER": "47", "BEZIRKS_NR": 15, "BEZIRKSNAME": "Wetzelsdorf", "LAGE": "Ecke Steinäckerstraße, Grünfläche", "ZEITEN": "Abgabemöglichkeit bis 19.01.2014", "LINK": "http:\/\/www.oekostadt.graz.at" }, "geometry": { "type": "Point", "coordinates": [ 15.40070527591028, 47.056957720287372 ] } },
{ "type": "Feature", "properties": { "OBJECTID": 329, "SAMMELSTELLENNAME": "Körblergasse", "STRASSENNAME": "Körblergasse", "HAUSNUMMER": "23", "BEZIRKS_NR": 3, "BEZIRKSNAME": "Geidorf", "LAGE": "Ecke Körblergasse - Goethestraße, beim SPAR Markt", "ZEITEN": "Abgabemöglichkeit bis 19.01.2014", "LINK": "http:\/\/www.oekostadt.graz.at" }, "geometry": { "type": "Point", "coordinates": [ 15.445023197003025, 47.08051785074278 ] } },
{ "type": "Feature", "properties": { "OBJECTID": 333, "SAMMELSTELLENNAME": "Darmstadtgasse", "STRASSENNAME": "Darmstadtgasse", "HAUSNUMMER": "15", "BEZIRKS_NR": 4, "BEZIRKSNAME": "Lend", "LAGE": "gegenüber Darmstadtgasse 15, Kinderspielplatz", "ZEITEN": "Abgabemöglichkeit bis 19.01.2014", "LINK": "http:\/\/www.oekostadt.graz.at" }, "geometry": { "type": "Point", "coordinates": [ 15.42223732693998, 47.078157695526329 ] } },
{ "type": "Feature", "properties": { "OBJECTID": 349, "SAMMELSTELLENNAME": "Fröhlichgasse", "STRASSENNAME": "Neuholdaugasse", "HAUSNUMMER": "93", "BEZIRKS_NR": 6, "BEZIRKSNAME": "Jakomini", "LAGE": "Ecke Fröhlichgasse\/Neuholdaugasse , auf der Insel", "ZEITEN": "Abgabemöglichkeit bis 19.01.2014", "LINK": "http:\/\/www.oekostadt.graz.at" }, "geometry": { "type": "Point", "coordinates": [ 15.440654117636583, 47.052648639362424 ] } },
{ "type": "Feature", "properties": { "OBJECTID": 354, "SAMMELSTELLENNAME": "Neufeldweg", "STRASSENNAME": "Neufeldweg", "HAUSNUMMER": "219", "BEZIRKS_NR": 8, "BEZIRKSNAME": "St. Peter", "LAGE": "In der Einfahrt zum Haus Neufeldweg 219", "ZEITEN": "Abgabemöglichkeit bis 19.01.2014", "LINK": "http:\/\/www.oekostadt.graz.at" }, "geometry": { "type": "Point", "coordinates": [ 15.47280151004845, 47.038169263296851 ] } },
{ "type": "Feature", "properties": { "OBJECTID": 355, "SAMMELSTELLENNAME": "St.-Peter-Hauptstraße", "STRASSENNAME": "St.-Peter-Hauptstraße", "HAUSNUMMER": "85", "BEZIRKS_NR": 8, "BEZIRKSNAME": "St. Peter", "LAGE": "Spielplatz, St.-Peter-Hauptstraße 85", "ZEITEN": "Abgabemöglichkeit bis 19.01.2014", "LINK": "http:\/\/www.oekostadt.graz.at" }, "geometry": { "type": "Point", "coordinates": [ 15.474546952201555, 47.054208518529805 ] } },
{ "type": "Feature", "properties": { "OBJECTID": 368, "SAMMELSTELLENNAME": "Plabutscherstraße", "STRASSENNAME": "Plabutscherstraße", "HAUSNUMMER": "123", "BEZIRKS_NR": 13, "BEZIRKSNAME": "Gösting", "LAGE": "Auf Höhe HNR 123 Spielplatz", "ZEITEN": "Abgabemöglichkeit bis 19.01.2014", "LINK": "http:\/\/www.oekostadt.graz.at" }, "geometry": { "type": "Point", "coordinates": [ 15.400310322087973, 47.093209547129156 ] } },
{ "type": "Feature", "properties": { "OBJECTID": 380, "SAMMELSTELLENNAME": "Grottenhofstraße 58", "STRASSENNAME": "Grottenhofstraße", "HAUSNUMMER": "58", "BEZIRKS_NR": 15, "BEZIRKSNAME": "Wetzelsdorf", "LAGE": "Am Ende der Parkplätze", "ZEITEN": "Abgabemöglichkeit bis 19.01.2014", "LINK": "http:\/\/www.oekostadt.graz.at" }, "geometry": { "type": "Point", "coordinates": [ 15.39751531187833, 47.047405264407317 ] } },
{ "type": "Feature", "properties": { "OBJECTID": 365, "SAMMELSTELLENNAME": "Ziegelstraße", "STRASSENNAME": "Ziegelstraße", "HAUSNUMMER": "18a", "BEZIRKS_NR": 12, "BEZIRKSNAME": "Andritz", "LAGE": "Ecke Ziegelstraße\/Viktor Zack Weg, Kinderspielplatz", "ZEITEN": "Abgabemöglichkeit bis 19.01.2014", "LINK": "http:\/\/www.oekostadt.graz.at" }, "geometry": { "type": "Point", "coordinates": [ 15.431121328960174, 47.100946618623212 ] } }
]
}
