{
"type": "FeatureCollection",
"crs": { "type": "name", "properties": { "name": "urn:ogc:def:crs:OGC:1.3:CRS84" } },
                                                                                
"features": [
{ "type": "Feature", "properties": { "OBJECTID": 4142, "SAMMELSTELLENNAME": "Alte Poststraße 433", "STRASSENNAME": "Alte Poststraße", "HAUSNUMMER": "433", "BEZIRKS_NR": 17, "BEZIRKSNAME": "Puntigam", "LAGE": "gegenüber an der Ecke Horneckstraße", "GS_P_INT": 0, "GS_P_TEXT": "nein", "GS_GV_INT": 1, "GS_GV_TEXT": "ja", "GS_AK_INT": 1, "GS_AK_TEXT": "ja", "LINK": "http:\/\/www.umwelt.graz.at\/cms\/ziel\/4927353\/DE\/" }, "geometry": { "type": "Point", "coordinates": [ 15.427632443322141, 47.037584163431049 ] } },
{ "type": "Feature", "properties": { "OBJECTID": 4143, "SAMMELSTELLENNAME": "Friedmanngasse 26", "STRASSENNAME": "Friedmanngasse", "HAUSNUMMER": "26", "BEZIRKS_NR": 7, "BEZIRKSNAME": "Liebenau", "LAGE": null, "GS_P_INT": 0, "GS_P_TEXT": "nein", "GS_GV_INT": 1, "GS_GV_TEXT": "ja", "GS_AK_INT": 0, "GS_AK_TEXT": "nein", "LINK": "http:\/\/www.umwelt.graz.at\/cms\/ziel\/4927353\/DE\/" }, "geometry": { "type": "Point", "coordinates": [ 15.46543944830743, 47.018517407393055 ] } },
{ "type": "Feature", "properties": { "OBJECTID": 4144, "SAMMELSTELLENNAME": "Hochsteingasse 30", "STRASSENNAME": "Hochsteingasse", "HAUSNUMMER": "30", "BEZIRKS_NR": 3, "BEZIRKSNAME": "Geidorf", "LAGE": "Ecke Zusertalgasse", "GS_P_INT": 1, "GS_P_TEXT": "ja", "GS_GV_INT": 1, "GS_GV_TEXT": "ja", "GS_AK_INT": 0, "GS_AK_TEXT": "nein", "LINK": "http:\/\/www.umwelt.graz.at\/cms\/ziel\/4927353\/DE\/" }, "geometry": { "type": "Point", "coordinates": [ 15.437750822863316, 47.089499865369262 ] } },
{ "type": "Feature", "properties": { "OBJECTID": 4145, "SAMMELSTELLENNAME": "Gartenstadtstraße 67", "STRASSENNAME": "Gartenstadtstraße", "HAUSNUMMER": "67", "BEZIRKS_NR": 6, "BEZIRKSNAME": "Jakomini", "LAGE": null, "GS_P_INT": 1, "GS_P_TEXT": "ja", "GS_GV_INT": 0, "GS_GV_TEXT": "nein", "GS_AK_INT": 0, "GS_AK_TEXT": "nein", "LINK": "http:\/\/www.umwelt.graz.at\/cms\/ziel\/4927353\/DE\/" }, "geometry": { "type": "Point", "coordinates": [ 15.462545987357743, 47.053504765621433 ] } },
{ "type": "Feature", "properties": { "OBJECTID": 4146, "SAMMELSTELLENNAME": "Lenaugasse 6", "STRASSENNAME": "Lenaugasse", "HAUSNUMMER": "6", "BEZIRKS_NR": 3, "BEZIRKSNAME": "Geidorf", "LAGE": "gegenüber, Ecke Auersperggasse, Straßenrand", "GS_P_INT": 0, "GS_P_TEXT": "nein", "GS_GV_INT": 0, "GS_GV_TEXT": "nein", "GS_AK_INT": 0, "GS_AK_TEXT": "nein", "LINK": "http:\/\/www.umwelt.graz.at\/cms\/ziel\/4927353\/DE\/" }, "geometry": { "type": "Point", "coordinates": [ 15.457553985214215, 47.080042465145482 ] } },
{ "type": "Feature", "properties": { "OBJECTID": 4147, "SAMMELSTELLENNAME": "Lendkai 163", "STRASSENNAME": "Lendkai", "HAUSNUMMER": "163", "BEZIRKS_NR": 4, "BEZIRKSNAME": "Lend", "LAGE": "am Gehsteig", "GS_P_INT": 0, "GS_P_TEXT": "nein", "GS_GV_INT": 0, "GS_GV_TEXT": "nein", "GS_AK_INT": 0, "GS_AK_TEXT": "nein", "LINK": "http:\/\/www.umwelt.graz.at\/cms\/ziel\/4927353\/DE\/" }, "geometry": { "type": "Point", "coordinates": [ 15.426118384434711, 47.082850933024844 ] } },
{ "type": "Feature", "properties": { "OBJECTID": 4148, "SAMMELSTELLENNAME": "Siebenundvierzigergasse 13", "STRASSENNAME": "Siebenundvierzigergasse", "HAUSNUMMER": "13", "BEZIRKS_NR": 5, "BEZIRKSNAME": "Gries", "LAGE": null, "GS_P_INT": 1, "GS_P_TEXT": "ja", "GS_GV_INT": 0, "GS_GV_TEXT": "nein", "GS_AK_INT": 0, "GS_AK_TEXT": "nein", "LINK": "http:\/\/www.umwelt.graz.at\/cms\/ziel\/4927353\/DE\/" }, "geometry": { "type": "Point", "coordinates": [ 15.424610744961436, 47.048384437590094 ] } },
{ "type": "Feature", "properties": { "OBJECTID": 4149, "SAMMELSTELLENNAME": "St.-Peter-Pfarrweg 7", "STRASSENNAME": "St.-Peter-Pfarrweg", "HAUSNUMMER": "7", "BEZIRKS_NR": 9, "BEZIRKSNAME": "Waltendorf", "LAGE": "(Pammer Bad)", "GS_P_INT": 0, "GS_P_TEXT": "nein", "GS_GV_INT": 1, "GS_GV_TEXT": "ja", "GS_AK_INT": 0, "GS_AK_TEXT": "nein", "LINK": "http:\/\/www.umwelt.graz.at\/cms\/ziel\/4927353\/DE\/" }, "geometry": { "type": "Point", "coordinates": [ 15.472456394276334, 47.065326556845498 ] } },
{ "type": "Feature", "properties": { "OBJECTID": 4150, "SAMMELSTELLENNAME": "Strauchergasse 6", "STRASSENNAME": "Strauchergasse", "HAUSNUMMER": "6", "BEZIRKS_NR": 4, "BEZIRKSNAME": "Lend", "LAGE": "Einfahrt", "GS_P_INT": 0, "GS_P_TEXT": "nein", "GS_GV_INT": 1, "GS_GV_TEXT": "ja", "GS_AK_INT": 0, "GS_AK_TEXT": "nein", "LINK": "http:\/\/www.umwelt.graz.at\/cms\/ziel\/4927353\/DE\/" }, "geometry": { "type": "Point", "coordinates": [ 15.428449885711087, 47.072115225700173 ] } },
{ "type": "Feature", "properties": { "OBJECTID": 4203, "SAMMELSTELLENNAME": "Straßengelstraße 33", "STRASSENNAME": "Straßengelstraße", "HAUSNUMMER": "33", "BEZIRKS_NR": 13, "BEZIRKSNAME": "Gösting", "LAGE": null, "GS_P_INT": 0, "GS_P_TEXT": "nein", "GS_GV_INT": 0, "GS_GV_TEXT": "nein", "GS_AK_INT": 0, "GS_AK_TEXT": "nein", "LINK": "http:\/\/www.umwelt.graz.at\/cms\/ziel\/4927353\/DE\/" }, "geometry": { "type": "Point", "coordinates": [ 15.393609453294754, 47.104621756336527 ] } },
{ "type": "Feature", "properties": { "OBJECTID": 4204, "SAMMELSTELLENNAME": "Straßganger Straße 151", "STRASSENNAME": "Straßganger Straße", "HAUSNUMMER": "151", "BEZIRKS_NR": 15, "BEZIRKSNAME": "Wetzelsdorf", "LAGE": "Ecke Schreinerstraße", "GS_P_INT": 0, "GS_P_TEXT": "nein", "GS_GV_INT": 0, "GS_GV_TEXT": "nein", "GS_AK_INT": 0, "GS_AK_TEXT": "nein", "LINK": "http:\/\/www.umwelt.graz.at\/cms\/ziel\/4927353\/DE\/" }, "geometry": { "type": "Point", "coordinates": [ 15.395403506584389, 47.055581808503646 ] } },
{ "type": "Feature", "properties": { "OBJECTID": 4205, "SAMMELSTELLENNAME": "Teichhof 29", "STRASSENNAME": "Teichhof", "HAUSNUMMER": "29", "BEZIRKS_NR": 11, "BEZIRKSNAME": "Mariatrost", "LAGE": null, "GS_P_INT": 0, "GS_P_TEXT": "nein", "GS_GV_INT": 0, "GS_GV_TEXT": "nein", "GS_AK_INT": 0, "GS_AK_TEXT": "nein", "LINK": "http:\/\/www.umwelt.graz.at\/cms\/ziel\/4927353\/DE\/" }, "geometry": { "type": "Point", "coordinates": [ 15.487115030062295, 47.100321586396205 ] } },
{ "type": "Feature", "properties": { "OBJECTID": 4206, "SAMMELSTELLENNAME": "Theodor-Storm-Straße 60", "STRASSENNAME": "Theodor-Storm-Straße", "HAUSNUMMER": "60", "BEZIRKS_NR": 8, "BEZIRKSNAME": "St. Peter", "LAGE": "Ecke Novalisgasse", "GS_P_INT": 0, "GS_P_TEXT": "nein", "GS_GV_INT": 0, "GS_GV_TEXT": "nein", "GS_AK_INT": 0, "GS_AK_TEXT": "nein", "LINK": "http:\/\/www.umwelt.graz.at\/cms\/ziel\/4927353\/DE\/" }, "geometry": { "type": "Point", "coordinates": [ 15.472836165521489, 47.046112179421911 ] } },
{ "type": "Feature", "properties": { "OBJECTID": 4207, "SAMMELSTELLENNAME": "Triester Straße 242", "STRASSENNAME": "Triester Straße", "HAUSNUMMER": "242", "BEZIRKS_NR": 17, "BEZIRKSNAME": "Puntigam", "LAGE": "am Gehsteig", "GS_P_INT": 0, "GS_P_TEXT": "nein", "GS_GV_INT": 0, "GS_GV_TEXT": "nein", "GS_AK_INT": 0, "GS_AK_TEXT": "nein", "LINK": "http:\/\/www.umwelt.graz.at\/cms\/ziel\/4927353\/DE\/" }, "geometry": { "type": "Point", "coordinates": [ 15.429899990852203, 47.039080489934854 ] } },
{ "type": "Feature", "properties": { "OBJECTID": 4208, "SAMMELSTELLENNAME": "Messendorfer Straße 113", "STRASSENNAME": "Messendorfer Straße", "HAUSNUMMER": "113", "BEZIRKS_NR": 8, "BEZIRKSNAME": "St. Peter", "LAGE": "Ecke Anton Jandl Weg", "GS_P_INT": 0, "GS_P_TEXT": "nein", "GS_GV_INT": 0, "GS_GV_TEXT": "nein", "GS_AK_INT": 0, "GS_AK_TEXT": "nein", "LINK": "http:\/\/www.umwelt.graz.at\/cms\/ziel\/4927353\/DE\/" }, "geometry": { "type": "Point", "coordinates": [ 15.483062981191532, 47.034176933788444 ] } },
{ "type": "Feature", "properties": { "OBJECTID": 4209, "SAMMELSTELLENNAME": "Neuholdaugasse 17", "STRASSENNAME": "Neuholdaugasse", "HAUSNUMMER": "17", "BEZIRKS_NR": 6, "BEZIRKSNAME": "Jakomini", "LAGE": "gegenüber", "GS_P_INT": 1, "GS_P_TEXT": "ja", "GS_GV_INT": 1, "GS_GV_TEXT": "ja", "GS_AK_INT": 0, "GS_AK_TEXT": "nein", "LINK": "http:\/\/www.umwelt.graz.at\/cms\/ziel\/4927353\/DE\/" }, "geometry": { "type": "Point", "coordinates": [ 15.43685228924423, 47.059963064515003 ] } },
{ "type": "Feature", "properties": { "OBJECTID": 4202, "SAMMELSTELLENNAME": "Stiftingtalstraße 325", "STRASSENNAME": "Stiftingtalstraße", "HAUSNUMMER": "325", "BEZIRKS_NR": 10, "BEZIRKSNAME": "Ries", "LAGE": "Ecke Panzenbeckgasse am Straßenrand", "GS_P_INT": 0, "GS_P_TEXT": "nein", "GS_GV_INT": 0, "GS_GV_TEXT": "nein", "GS_AK_INT": 0, "GS_AK_TEXT": "nein", "LINK": "http:\/\/www.umwelt.graz.at\/cms\/ziel\/4927353\/DE\/" }, "geometry": { "type": "Point", "coordinates": [ 15.504600992964322, 47.097902001531111 ] } },
{ "type": "Feature", "properties": { "OBJECTID": 4210, "SAMMELSTELLENNAME": "Pappenheimgasse 5", "STRASSENNAME": "Pappenheimgasse", "HAUSNUMMER": "5", "BEZIRKS_NR": 2, "BEZIRKSNAME": "St. Leonhard", "LAGE": "gegenüber am Gehsteig", "GS_P_INT": 1, "GS_P_TEXT": "ja", "GS_GV_INT": 1, "GS_GV_TEXT": "ja", "GS_AK_INT": 0, "GS_AK_TEXT": "nein", "LINK": "http:\/\/www.umwelt.graz.at\/cms\/ziel\/4927353\/DE\/" }, "geometry": { "type": "Point", "coordinates": [ 15.458344148817549, 47.07380371697888 ] } },
{ "type": "Feature", "properties": { "OBJECTID": 4246, "SAMMELSTELLENNAME": "Neusitzstraße 50", "STRASSENNAME": "Neusitzstraße", "HAUSNUMMER": "50", "BEZIRKS_NR": 11, "BEZIRKSNAME": "Mariatrost", "LAGE": "(beim Statteggerhof)", "GS_P_INT": 0, "GS_P_TEXT": "nein", "GS_GV_INT": 1, "GS_GV_TEXT": "ja", "GS_AK_INT": 1, "GS_AK_TEXT": "ja", "LINK": "http:\/\/www.umwelt.graz.at\/cms\/ziel\/4927353\/DE\/" }, "geometry": { "type": "Point", "coordinates": [ 15.511658378860904, 47.122484329539482 ] } },
{ "type": "Feature", "properties": { "OBJECTID": 4247, "SAMMELSTELLENNAME": "Obere Bahnstraße 39", "STRASSENNAME": "Obere Bahnstraße", "HAUSNUMMER": "39", "BEZIRKS_NR": 6, "BEZIRKSNAME": "Jakomini", "LAGE": "Schönaugasse", "GS_P_INT": 1, "GS_P_TEXT": "ja", "GS_GV_INT": 1, "GS_GV_TEXT": "ja", "GS_AK_INT": 0, "GS_AK_TEXT": "nein", "LINK": "http:\/\/www.umwelt.graz.at\/cms\/ziel\/4927353\/DE\/" }, "geometry": { "type": "Point", "coordinates": [ 15.441021115740703, 47.057605276237425 ] } },
{ "type": "Feature", "properties": { "OBJECTID": 4248, "SAMMELSTELLENNAME": "Petrifelderstraße 51", "STRASSENNAME": "Petrifelderstraße", "HAUSNUMMER": "51", "BEZIRKS_NR": 8, "BEZIRKSNAME": "St. Peter", "LAGE": "Ecke Wittenbauerstraße", "GS_P_INT": 0, "GS_P_TEXT": "nein", "GS_GV_INT": 1, "GS_GV_TEXT": "ja", "GS_AK_INT": 0, "GS_AK_TEXT": "nein", "LINK": "http:\/\/www.umwelt.graz.at\/cms\/ziel\/4927353\/DE\/" }, "geometry": { "type": "Point", "coordinates": [ 15.468084917907994, 47.048678213401637 ] } },
{ "type": "Feature", "properties": { "OBJECTID": 4249, "SAMMELSTELLENNAME": "Petrifelderstraße 58", "STRASSENNAME": "Petrifelderstraße", "HAUSNUMMER": "58", "BEZIRKS_NR": 8, "BEZIRKSNAME": "St. Peter", "LAGE": "Ecke Hauffgasse", "GS_P_INT": 0, "GS_P_TEXT": "nein", "GS_GV_INT": 1, "GS_GV_TEXT": "ja", "GS_AK_INT": 0, "GS_AK_TEXT": "nein", "LINK": "http:\/\/www.umwelt.graz.at\/cms\/ziel\/4927353\/DE\/" }, "geometry": { "type": "Point", "coordinates": [ 15.466167765365986, 47.048105671753348 ] } },
{ "type": "Feature", "properties": { "OBJECTID": 4250, "SAMMELSTELLENNAME": "Pehamweg 16", "STRASSENNAME": "Pehamweg", "HAUSNUMMER": "16", "BEZIRKS_NR": 16, "BEZIRKSNAME": "Straßgang", "LAGE": "Ecke Kapellenstraße", "GS_P_INT": 0, "GS_P_TEXT": "nein", "GS_GV_INT": 1, "GS_GV_TEXT": "ja", "GS_AK_INT": 0, "GS_AK_TEXT": "nein", "LINK": "http:\/\/www.umwelt.graz.at\/cms\/ziel\/4927353\/DE\/" }, "geometry": { "type": "Point", "coordinates": [ 15.417417500425863, 47.046135213255958 ] } },
{ "type": "Feature", "properties": { "OBJECTID": 4251, "SAMMELSTELLENNAME": "Mauergasse 33", "STRASSENNAME": "Mauergasse", "HAUSNUMMER": "33", "BEZIRKS_NR": 5, "BEZIRKSNAME": "Gries", "LAGE": "gegenüber, Vierkanthof", "GS_P_INT": 1, "GS_P_TEXT": "ja", "GS_GV_INT": 0, "GS_GV_TEXT": "nein", "GS_AK_INT": 0, "GS_AK_TEXT": "nein", "LINK": "http:\/\/www.umwelt.graz.at\/cms\/ziel\/4927353\/DE\/" }, "geometry": { "type": "Point", "coordinates": [ 15.427522552582301, 47.053620865371172 ] } },
{ "type": "Feature", "properties": { "OBJECTID": 4252, "SAMMELSTELLENNAME": "Kapellenstraße 22", "STRASSENNAME": "Kapellenstraße", "HAUSNUMMER": "22", "BEZIRKS_NR": 5, "BEZIRKSNAME": "Gries", "LAGE": null, "GS_P_INT": 1, "GS_P_TEXT": "ja", "GS_GV_INT": 0, "GS_GV_TEXT": "nein", "GS_AK_INT": 0, "GS_AK_TEXT": "nein", "LINK": "http:\/\/www.umwelt.graz.at\/cms\/ziel\/4927353\/DE\/" }, "geometry": { "type": "Point", "coordinates": [ 15.423836483156808, 47.051079614420139 ] } },
{ "type": "Feature", "properties": { "OBJECTID": 4253, "SAMMELSTELLENNAME": "Schönaugasse 84", "STRASSENNAME": "Schönaugasse", "HAUSNUMMER": "84", "BEZIRKS_NR": 6, "BEZIRKSNAME": "Jakomini", "LAGE": null, "GS_P_INT": 1, "GS_P_TEXT": "ja", "GS_GV_INT": 0, "GS_GV_TEXT": "nein", "GS_AK_INT": 0, "GS_AK_TEXT": "nein", "LINK": "http:\/\/www.umwelt.graz.at\/cms\/ziel\/4927353\/DE\/" }, "geometry": { "type": "Point", "coordinates": [ 15.440522465876711, 47.058143332813728 ] } },
{ "type": "Feature", "properties": { "OBJECTID": 4254, "SAMMELSTELLENNAME": "Burggasse 6", "STRASSENNAME": "Burggasse", "HAUSNUMMER": "6", "BEZIRKS_NR": 1, "BEZIRKSNAME": "Innere Stadt", "LAGE": "Salzamtgasse", "GS_P_INT": 0, "GS_P_TEXT": "nein", "GS_GV_INT": 1, "GS_GV_TEXT": "ja", "GS_AK_INT": 0, "GS_AK_TEXT": "nein", "LINK": "http:\/\/www.umwelt.graz.at\/cms\/ziel\/4927353\/DE\/" }, "geometry": { "type": "Point", "coordinates": [ 15.443842584348552, 47.070796123994782 ] } },
{ "type": "Feature", "properties": { "OBJECTID": 4211, "SAMMELSTELLENNAME": "Muchargasse 6", "STRASSENNAME": "Muchargasse", "HAUSNUMMER": "6", "BEZIRKS_NR": 3, "BEZIRKSNAME": "Geidorf", "LAGE": "gegenüber", "GS_P_INT": 1, "GS_P_TEXT": "ja", "GS_GV_INT": 1, "GS_GV_TEXT": "ja", "GS_AK_INT": 1, "GS_AK_TEXT": "ja", "LINK": "http:\/\/www.umwelt.graz.at\/cms\/ziel\/4927353\/DE\/" }, "geometry": { "type": "Point", "coordinates": [ 15.437533997994276, 47.080804107131591 ] } },
{ "type": "Feature", "properties": { "OBJECTID": 4212, "SAMMELSTELLENNAME": "Theodor-Körner-Straße 120", "STRASSENNAME": "Theodor-Körner-Straße", "HAUSNUMMER": "120", "BEZIRKS_NR": 3, "BEZIRKSNAME": "Geidorf", "LAGE": "Ecke Vogelweiderstraße", "GS_P_INT": 1, "GS_P_TEXT": "ja", "GS_GV_INT": 1, "GS_GV_TEXT": "ja", "GS_AK_INT": 1, "GS_AK_TEXT": "ja", "LINK": "http:\/\/www.umwelt.graz.at\/cms\/ziel\/4927353\/DE\/" }, "geometry": { "type": "Point", "coordinates": [ 15.428930694970488, 47.088781454749714 ] } },
{ "type": "Feature", "properties": { "OBJECTID": 4213, "SAMMELSTELLENNAME": "Theodor-Körner-Straße 40", "STRASSENNAME": "Theodor-Körner-Straße", "HAUSNUMMER": "40", "BEZIRKS_NR": 3, "BEZIRKSNAME": "Geidorf", "LAGE": "Ecke Wilhelm-Kienzl-Gasse", "GS_P_INT": 1, "GS_P_TEXT": "ja", "GS_GV_INT": 0, "GS_GV_TEXT": "nein", "GS_AK_INT": 0, "GS_AK_TEXT": "nein", "LINK": "http:\/\/www.umwelt.graz.at\/cms\/ziel\/4927353\/DE\/" }, "geometry": { "type": "Point", "coordinates": [ 15.433914608865255, 47.081466833278327 ] } },
{ "type": "Feature", "properties": { "OBJECTID": 4214, "SAMMELSTELLENNAME": "Zusertalgasse 69", "STRASSENNAME": "Zusertalgasse", "HAUSNUMMER": "69", "BEZIRKS_NR": 3, "BEZIRKSNAME": "Geidorf", "LAGE": null, "GS_P_INT": 1, "GS_P_TEXT": "ja", "GS_GV_INT": 0, "GS_GV_TEXT": "nein", "GS_AK_INT": 0, "GS_AK_TEXT": "nein", "LINK": "http:\/\/www.umwelt.graz.at\/cms\/ziel\/4927353\/DE\/" }, "geometry": { "type": "Point", "coordinates": [ 15.444081194458301, 47.093675019651513 ] } },
{ "type": "Feature", "properties": { "OBJECTID": 4215, "SAMMELSTELLENNAME": "Mohsgasse 6", "STRASSENNAME": "Mohsgasse", "HAUSNUMMER": "6", "BEZIRKS_NR": 4, "BEZIRKSNAME": "Lend", "LAGE": "am Gehsteig", "GS_P_INT": 1, "GS_P_TEXT": "ja", "GS_GV_INT": 1, "GS_GV_TEXT": "ja", "GS_AK_INT": 0, "GS_AK_TEXT": "nein", "LINK": "http:\/\/www.umwelt.graz.at\/cms\/ziel\/4927353\/DE\/" }, "geometry": { "type": "Point", "coordinates": [ 15.420008410964805, 47.071846916905585 ] } },
{ "type": "Feature", "properties": { "OBJECTID": 4216, "SAMMELSTELLENNAME": "Ludwig-Benedek-Gasse 33", "STRASSENNAME": "Ludwig-Benedek-Gasse", "HAUSNUMMER": "33", "BEZIRKS_NR": 16, "BEZIRKSNAME": "Straßgang", "LAGE": null, "GS_P_INT": 0, "GS_P_TEXT": "nein", "GS_GV_INT": 1, "GS_GV_TEXT": "ja", "GS_AK_INT": 0, "GS_AK_TEXT": "nein", "LINK": "http:\/\/www.umwelt.graz.at\/cms\/ziel\/4927353\/DE\/" }, "geometry": { "type": "Point", "coordinates": [ 15.404964604015873, 47.035445994071104 ] } },
{ "type": "Feature", "properties": { "OBJECTID": 4217, "SAMMELSTELLENNAME": "Mariatroster Straße 114", "STRASSENNAME": "Mariatroster Straße", "HAUSNUMMER": "114", "BEZIRKS_NR": 11, "BEZIRKSNAME": "Mariatrost", "LAGE": "gegenüber", "GS_P_INT": 0, "GS_P_TEXT": "nein", "GS_GV_INT": 1, "GS_GV_TEXT": "ja", "GS_AK_INT": 0, "GS_AK_TEXT": "nein", "LINK": "http:\/\/www.umwelt.graz.at\/cms\/ziel\/4927353\/DE\/" }, "geometry": { "type": "Point", "coordinates": [ 15.465975230394074, 47.095444086511044 ] } },
{ "type": "Feature", "properties": { "OBJECTID": 4218, "SAMMELSTELLENNAME": "Nordweg 14", "STRASSENNAME": "Nordweg", "HAUSNUMMER": "14", "BEZIRKS_NR": 6, "BEZIRKSNAME": "Jakomini", "LAGE": "Ecke Froschaugasse", "GS_P_INT": 1, "GS_P_TEXT": "ja", "GS_GV_INT": 1, "GS_GV_TEXT": "ja", "GS_AK_INT": 0, "GS_AK_TEXT": "nein", "LINK": "http:\/\/www.umwelt.graz.at\/cms\/ziel\/4927353\/DE\/" }, "geometry": { "type": "Point", "coordinates": [ 15.440002439543864, 47.055848027541785 ] } },
{ "type": "Feature", "properties": { "OBJECTID": 4220, "SAMMELSTELLENNAME": "Obstgasse 8", "STRASSENNAME": "Obstgasse", "HAUSNUMMER": "8", "BEZIRKS_NR": 2, "BEZIRKSNAME": "St. Leonhard", "LAGE": "Ecke Zwerggasse", "GS_P_INT": 0, "GS_P_TEXT": "nein", "GS_GV_INT": 0, "GS_GV_TEXT": "nein", "GS_AK_INT": 0, "GS_AK_TEXT": "nein", "LINK": "http:\/\/www.umwelt.graz.at\/cms\/ziel\/4927353\/DE\/" }, "geometry": { "type": "Point", "coordinates": [ 15.454255707246501, 47.072375426536638 ] } },
{ "type": "Feature", "properties": { "OBJECTID": 4221, "SAMMELSTELLENNAME": "Messendorfer Straße 51", "STRASSENNAME": "Messendorfer Straße", "HAUSNUMMER": "51", "BEZIRKS_NR": 7, "BEZIRKSNAME": "Liebenau", "LAGE": "gegenüber", "GS_P_INT": 0, "GS_P_TEXT": "nein", "GS_GV_INT": 1, "GS_GV_TEXT": "ja", "GS_AK_INT": 0, "GS_AK_TEXT": "nein", "LINK": "http:\/\/www.umwelt.graz.at\/cms\/ziel\/4927353\/DE\/" }, "geometry": { "type": "Point", "coordinates": [ 15.469417987467548, 47.036256118307271 ] } },
{ "type": "Feature", "properties": { "OBJECTID": 4222, "SAMMELSTELLENNAME": "Rudolf-Hans-Bartsch-Straße 32", "STRASSENNAME": "Rudolf-Hans-Bartsch-Straße", "HAUSNUMMER": "32", "BEZIRKS_NR": 8, "BEZIRKSNAME": "St. Peter", "LAGE": null, "GS_P_INT": 0, "GS_P_TEXT": "nein", "GS_GV_INT": 0, "GS_GV_TEXT": "nein", "GS_AK_INT": 0, "GS_AK_TEXT": "nein", "LINK": "http:\/\/www.umwelt.graz.at\/cms\/ziel\/4927353\/DE\/" }, "geometry": { "type": "Point", "coordinates": [ 15.467004053202501, 47.055486334459594 ] } },
{ "type": "Feature", "properties": { "OBJECTID": 4219, "SAMMELSTELLENNAME": "Plüddemanngasse 38", "STRASSENNAME": "Plüddemanngasse", "HAUSNUMMER": "38", "BEZIRKS_NR": 9, "BEZIRKSNAME": "Waltendorf", "LAGE": "gegenüber", "GS_P_INT": 0, "GS_P_TEXT": "nein", "GS_GV_INT": 1, "GS_GV_TEXT": "ja", "GS_AK_INT": 0, "GS_AK_TEXT": "nein", "LINK": "http:\/\/www.umwelt.graz.at\/cms\/ziel\/4927353\/DE\/" }, "geometry": { "type": "Point", "coordinates": [ 15.46343643572213, 47.065663400225006 ] } },
{ "type": "Feature", "properties": { "OBJECTID": 4223, "SAMMELSTELLENNAME": "Kleegasse 4", "STRASSENNAME": "Kleegasse", "HAUSNUMMER": "4", "BEZIRKS_NR": 5, "BEZIRKSNAME": "Gries", "LAGE": "gegenüber", "GS_P_INT": 1, "GS_P_TEXT": "ja", "GS_GV_INT": 1, "GS_GV_TEXT": "ja", "GS_AK_INT": 0, "GS_AK_TEXT": "nein", "LINK": "http:\/\/www.umwelt.graz.at\/cms\/ziel\/4927353\/DE\/" }, "geometry": { "type": "Point", "coordinates": [ 15.432933229584181, 47.065662190954995 ] } },
{ "type": "Feature", "properties": { "OBJECTID": 4224, "SAMMELSTELLENNAME": "Lazarettgürtel 90", "STRASSENNAME": "Lazarettgürtel", "HAUSNUMMER": "90", "BEZIRKS_NR": 5, "BEZIRKSNAME": "Gries", "LAGE": null, "GS_P_INT": 1, "GS_P_TEXT": "ja", "GS_GV_INT": 0, "GS_GV_TEXT": "nein", "GS_AK_INT": 0, "GS_AK_TEXT": "nein", "LINK": "http:\/\/www.umwelt.graz.at\/cms\/ziel\/4927353\/DE\/" }, "geometry": { "type": "Point", "coordinates": [ 15.426722672682544, 47.056992378610339 ] } },
{ "type": "Feature", "properties": { "OBJECTID": 4225, "SAMMELSTELLENNAME": "Radegunder Straße 64", "STRASSENNAME": "Radegunder Straße", "HAUSNUMMER": "64", "BEZIRKS_NR": 12, "BEZIRKSNAME": "Andritz", "LAGE": "gegenüber", "GS_P_INT": 0, "GS_P_TEXT": "nein", "GS_GV_INT": 0, "GS_GV_TEXT": "nein", "GS_AK_INT": 0, "GS_AK_TEXT": "nein", "LINK": "http:\/\/www.umwelt.graz.at\/cms\/ziel\/4927353\/DE\/" }, "geometry": { "type": "Point", "coordinates": [ 15.431145405183381, 47.111117417607865 ] } },
{ "type": "Feature", "properties": { "OBJECTID": 4226, "SAMMELSTELLENNAME": "Puchstraße 36", "STRASSENNAME": "Puchstraße", "HAUSNUMMER": "36", "BEZIRKS_NR": 5, "BEZIRKSNAME": "Gries", "LAGE": "am Gehsteig", "GS_P_INT": 1, "GS_P_TEXT": "ja", "GS_GV_INT": 1, "GS_GV_TEXT": "ja", "GS_AK_INT": 0, "GS_AK_TEXT": "nein", "LINK": "http:\/\/www.umwelt.graz.at\/cms\/ziel\/4927353\/DE\/" }, "geometry": { "type": "Point", "coordinates": [ 15.434044490617294, 47.049716678480117 ] } },
{ "type": "Feature", "properties": { "OBJECTID": 4227, "SAMMELSTELLENNAME": "Storchgasse 3", "STRASSENNAME": "Storchgasse", "HAUSNUMMER": "3", "BEZIRKS_NR": 5, "BEZIRKSNAME": "Gries", "LAGE": null, "GS_P_INT": 1, "GS_P_TEXT": "ja", "GS_GV_INT": 0, "GS_GV_TEXT": "nein", "GS_AK_INT": 0, "GS_AK_TEXT": "nein", "LINK": "http:\/\/www.umwelt.graz.at\/cms\/ziel\/4927353\/DE\/" }, "geometry": { "type": "Point", "coordinates": [ 15.433141871470987, 47.066808642714733 ] } },
{ "type": "Feature", "properties": { "OBJECTID": 4230, "SAMMELSTELLENNAME": "Vinzenzgasse 58", "STRASSENNAME": "Vinzenzgasse", "HAUSNUMMER": "58", "BEZIRKS_NR": 14, "BEZIRKSNAME": "Eggenberg", "LAGE": "Ecke Eisengasse", "GS_P_INT": 0, "GS_P_TEXT": "nein", "GS_GV_INT": 0, "GS_GV_TEXT": "nein", "GS_AK_INT": 0, "GS_AK_TEXT": "nein", "LINK": "http:\/\/www.umwelt.graz.at\/cms\/ziel\/4927353\/DE\/" }, "geometry": { "type": "Point", "coordinates": [ 15.405162564069478, 47.076583277919887 ] } },
{ "type": "Feature", "properties": { "OBJECTID": 4231, "SAMMELSTELLENNAME": "Puchstraße 186", "STRASSENNAME": "Puchstraße", "HAUSNUMMER": "186", "BEZIRKS_NR": 17, "BEZIRKSNAME": "Puntigam", "LAGE": "gegenüber, Ecke Holzerweg", "GS_P_INT": 0, "GS_P_TEXT": "nein", "GS_GV_INT": 1, "GS_GV_TEXT": "ja", "GS_AK_INT": 0, "GS_AK_TEXT": "nein", "LINK": "http:\/\/www.umwelt.graz.at\/cms\/ziel\/4927353\/DE\/" }, "geometry": { "type": "Point", "coordinates": [ 15.439862802638496, 47.036287591935405 ] } },
{ "type": "Feature", "properties": { "OBJECTID": 4232, "SAMMELSTELLENNAME": "Schönaugasse 43", "STRASSENNAME": "Schönaugasse", "HAUSNUMMER": "43", "BEZIRKS_NR": 6, "BEZIRKSNAME": "Jakomini", "LAGE": "Ecke Schießstattgasse", "GS_P_INT": 0, "GS_P_TEXT": "nein", "GS_GV_INT": 1, "GS_GV_TEXT": "ja", "GS_AK_INT": 0, "GS_AK_TEXT": "nein", "LINK": "http:\/\/www.umwelt.graz.at\/cms\/ziel\/4927353\/DE\/" }, "geometry": { "type": "Point", "coordinates": [ 15.440298736679534, 47.063334906035834 ] } },
{ "type": "Feature", "properties": { "OBJECTID": 4233, "SAMMELSTELLENNAME": "Lorenz-Vest-Weg 54", "STRASSENNAME": "Lorenz-Vest-Weg", "HAUSNUMMER": "54", "BEZIRKS_NR": 7, "BEZIRKSNAME": "Liebenau", "LAGE": null, "GS_P_INT": 0, "GS_P_TEXT": "nein", "GS_GV_INT": 1, "GS_GV_TEXT": "ja", "GS_AK_INT": 0, "GS_AK_TEXT": "nein", "LINK": "http:\/\/www.umwelt.graz.at\/cms\/ziel\/4927353\/DE\/" }, "geometry": { "type": "Point", "coordinates": [ 15.481457188753337, 47.027175342128707 ] } },
{ "type": "Feature", "properties": { "OBJECTID": 4228, "SAMMELSTELLENNAME": "Ungergasse 41", "STRASSENNAME": "Ungergasse", "HAUSNUMMER": "41", "BEZIRKS_NR": 5, "BEZIRKSNAME": "Gries", "LAGE": "Roth Tankstelle", "GS_P_INT": 1, "GS_P_TEXT": "ja", "GS_GV_INT": 0, "GS_GV_TEXT": "nein", "GS_AK_INT": 0, "GS_AK_TEXT": "nein", "LINK": "http:\/\/www.umwelt.graz.at\/cms\/ziel\/4927353\/DE\/" }, "geometry": { "type": "Point", "coordinates": [ 15.422348590669811, 47.067175569001087 ] } },
{ "type": "Feature", "properties": { "OBJECTID": 4234, "SAMMELSTELLENNAME": "Ruckerlberggasse 35", "STRASSENNAME": "Ruckerlberggasse", "HAUSNUMMER": "35", "BEZIRKS_NR": 9, "BEZIRKSNAME": "Waltendorf", "LAGE": "Ecke Polzergasse", "GS_P_INT": 0, "GS_P_TEXT": "nein", "GS_GV_INT": 0, "GS_GV_TEXT": "nein", "GS_AK_INT": 0, "GS_AK_TEXT": "nein", "LINK": "http:\/\/www.umwelt.graz.at\/cms\/ziel\/4927353\/DE\/" }, "geometry": { "type": "Point", "coordinates": [ 15.467852491384601, 47.070353009634211 ] } },
{ "type": "Feature", "properties": { "OBJECTID": 4235, "SAMMELSTELLENNAME": "Ruckerlberggürtel 6", "STRASSENNAME": "Ruckerlberggürtel", "HAUSNUMMER": "6", "BEZIRKS_NR": 2, "BEZIRKSNAME": "St. Leonhard", "LAGE": "Ecke Schörgelgasse", "GS_P_INT": 0, "GS_P_TEXT": "nein", "GS_GV_INT": 0, "GS_GV_TEXT": "nein", "GS_AK_INT": 0, "GS_AK_TEXT": "nein", "LINK": "http:\/\/www.umwelt.graz.at\/cms\/ziel\/4927353\/DE\/" }, "geometry": { "type": "Point", "coordinates": [ 15.461172399716173, 47.066324534217408 ] } },
{ "type": "Feature", "properties": { "OBJECTID": 4229, "SAMMELSTELLENNAME": "Feldgasse 40", "STRASSENNAME": "Feldgasse", "HAUSNUMMER": "40", "BEZIRKS_NR": 5, "BEZIRKSNAME": "Gries", "LAGE": "Ecke Adalbert-Stifter-Gasse \/ Südliches Lazarettfeld", "GS_P_INT": 1, "GS_P_TEXT": "ja", "GS_GV_INT": 1, "GS_GV_TEXT": "ja", "GS_AK_INT": 0, "GS_AK_TEXT": "nein", "LINK": "http:\/\/www.umwelt.graz.at\/cms\/ziel\/4927353\/DE\/" }, "geometry": { "type": "Point", "coordinates": [ 15.420347649584556, 47.054525502503296 ] } },
{ "type": "Feature", "properties": { "OBJECTID": 4236, "SAMMELSTELLENNAME": "Gottlieb-Remschmidt-Gasse 14", "STRASSENNAME": "Gottlieb-Remschmidt-Gasse", "HAUSNUMMER": "14", "BEZIRKS_NR": 12, "BEZIRKSNAME": "Andritz", "LAGE": null, "GS_P_INT": 0, "GS_P_TEXT": "nein", "GS_GV_INT": 1, "GS_GV_TEXT": "ja", "GS_AK_INT": 0, "GS_AK_TEXT": "nein", "LINK": "http:\/\/www.umwelt.graz.at\/cms\/ziel\/4927353\/DE\/" }, "geometry": { "type": "Point", "coordinates": [ 15.422192650599939, 47.105253122139821 ] } },
{ "type": "Feature", "properties": { "OBJECTID": 4239, "SAMMELSTELLENNAME": "Hartenaugasse 27", "STRASSENNAME": "Hartenaugasse", "HAUSNUMMER": "27", "BEZIRKS_NR": 3, "BEZIRKSNAME": "Geidorf", "LAGE": "Ecke Schanzelgasse", "GS_P_INT": 1, "GS_P_TEXT": "ja", "GS_GV_INT": 0, "GS_GV_TEXT": "nein", "GS_AK_INT": 0, "GS_AK_TEXT": "nein", "LINK": "http:\/\/www.umwelt.graz.at\/cms\/ziel\/4927353\/DE\/" }, "geometry": { "type": "Point", "coordinates": [ 15.457468745260153, 47.07745831462173 ] } },
{ "type": "Feature", "properties": { "OBJECTID": 4237, "SAMMELSTELLENNAME": "Posenergasse 7", "STRASSENNAME": "Posenergasse", "HAUSNUMMER": "7", "BEZIRKS_NR": 12, "BEZIRKSNAME": "Andritz", "LAGE": null, "GS_P_INT": 0, "GS_P_TEXT": "nein", "GS_GV_INT": 0, "GS_GV_TEXT": "nein", "GS_AK_INT": 0, "GS_AK_TEXT": "nein", "LINK": "http:\/\/www.umwelt.graz.at\/cms\/ziel\/4927353\/DE\/" }, "geometry": { "type": "Point", "coordinates": [ 15.42166907978828, 47.100212385469504 ] } },
{ "type": "Feature", "properties": { "OBJECTID": 4240, "SAMMELSTELLENNAME": "Austeingasse 38", "STRASSENNAME": "Austeingasse", "HAUSNUMMER": "38", "BEZIRKS_NR": 4, "BEZIRKSNAME": "Lend", "LAGE": "Kalvariengürtel 39", "GS_P_INT": 1, "GS_P_TEXT": "ja", "GS_GV_INT": 1, "GS_GV_TEXT": "ja", "GS_AK_INT": 1, "GS_AK_TEXT": "ja", "LINK": "http:\/\/www.umwelt.graz.at\/cms\/ziel\/4927353\/DE\/" }, "geometry": { "type": "Point", "coordinates": [ 15.41907215679552, 47.085007371033988 ] } },
{ "type": "Feature", "properties": { "OBJECTID": 4241, "SAMMELSTELLENNAME": "Waldertgasse 18", "STRASSENNAME": "Waldertgasse", "HAUSNUMMER": "18", "BEZIRKS_NR": 4, "BEZIRKSNAME": "Lend", "LAGE": null, "GS_P_INT": 1, "GS_P_TEXT": "ja", "GS_GV_INT": 0, "GS_GV_TEXT": "nein", "GS_AK_INT": 0, "GS_AK_TEXT": "nein", "LINK": "http:\/\/www.umwelt.graz.at\/cms\/ziel\/4927353\/DE\/" }, "geometry": { "type": "Point", "coordinates": [ 15.40805316821876, 47.080201103883439 ] } },
{ "type": "Feature", "properties": { "OBJECTID": 4242, "SAMMELSTELLENNAME": "Keplerstraße 87", "STRASSENNAME": "Keplerstraße", "HAUSNUMMER": "87", "BEZIRKS_NR": 4, "BEZIRKSNAME": "Lend", "LAGE": "Rebengasse", "GS_P_INT": 1, "GS_P_TEXT": "ja", "GS_GV_INT": 1, "GS_GV_TEXT": "ja", "GS_AK_INT": 1, "GS_AK_TEXT": "ja", "LINK": "http:\/\/www.umwelt.graz.at\/cms\/ziel\/4927353\/DE\/" }, "geometry": { "type": "Point", "coordinates": [ 15.421463122546998, 47.073663790018273 ] } },
{ "type": "Feature", "properties": { "OBJECTID": 4243, "SAMMELSTELLENNAME": "Florianigasse 10", "STRASSENNAME": "Florianigasse", "HAUSNUMMER": "10", "BEZIRKS_NR": 5, "BEZIRKSNAME": "Gries", "LAGE": null, "GS_P_INT": 1, "GS_P_TEXT": "ja", "GS_GV_INT": 0, "GS_GV_TEXT": "nein", "GS_AK_INT": 0, "GS_AK_TEXT": "nein", "LINK": "http:\/\/www.umwelt.graz.at\/cms\/ziel\/4927353\/DE\/" }, "geometry": { "type": "Point", "coordinates": [ 15.422143666287583, 47.058493295509606 ] } },
{ "type": "Feature", "properties": { "OBJECTID": 4238, "SAMMELSTELLENNAME": "Puchstraße 124", "STRASSENNAME": "Puchstraße", "HAUSNUMMER": "124", "BEZIRKS_NR": 5, "BEZIRKSNAME": "Gries", "LAGE": "Ecke Tiergartenweg", "GS_P_INT": 0, "GS_P_TEXT": "nein", "GS_GV_INT": 0, "GS_GV_TEXT": "nein", "GS_AK_INT": 0, "GS_AK_TEXT": "nein", "LINK": "http:\/\/www.umwelt.graz.at\/cms\/ziel\/4927353\/DE\/" }, "geometry": { "type": "Point", "coordinates": [ 15.437547283178109, 47.041604068500639 ] } },
{ "type": "Feature", "properties": { "OBJECTID": 4244, "SAMMELSTELLENNAME": "Neufeldweg 71", "STRASSENNAME": "Neufeldweg", "HAUSNUMMER": "71", "BEZIRKS_NR": 6, "BEZIRKSNAME": "Jakomini", "LAGE": "Ecke Harmsdorfgasse, am Gehsteig", "GS_P_INT": 1, "GS_P_TEXT": "ja", "GS_GV_INT": 1, "GS_GV_TEXT": "ja", "GS_AK_INT": 1, "GS_AK_TEXT": "ja", "LINK": "http:\/\/www.umwelt.graz.at\/cms\/ziel\/4927353\/DE\/" }, "geometry": { "type": "Point", "coordinates": [ 15.459068900312024, 47.05131394737743 ] } },
{ "type": "Feature", "properties": { "OBJECTID": 4245, "SAMMELSTELLENNAME": "Neuholdaugasse 94", "STRASSENNAME": "Neuholdaugasse", "HAUSNUMMER": "94", "BEZIRKS_NR": 6, "BEZIRKSNAME": "Jakomini", "LAGE": "daneben", "GS_P_INT": 1, "GS_P_TEXT": "ja", "GS_GV_INT": 0, "GS_GV_TEXT": "nein", "GS_AK_INT": 0, "GS_AK_TEXT": "nein", "LINK": "http:\/\/www.umwelt.graz.at\/cms\/ziel\/4927353\/DE\/" }, "geometry": { "type": "Point", "coordinates": [ 15.440017061188952, 47.052956391810255 ] } },
{ "type": "Feature", "properties": { "OBJECTID": 4152, "SAMMELSTELLENNAME": "Peterstalstraße 115", "STRASSENNAME": "Peterstalstraße", "HAUSNUMMER": "115", "BEZIRKS_NR": 8, "BEZIRKSNAME": "St. Peter", "LAGE": null, "GS_P_INT": 0, "GS_P_TEXT": "nein", "GS_GV_INT": 0, "GS_GV_TEXT": "nein", "GS_AK_INT": 0, "GS_AK_TEXT": "nein", "LINK": "http:\/\/www.umwelt.graz.at\/cms\/ziel\/4927353\/DE\/" }, "geometry": { "type": "Point", "coordinates": [ 15.489531061693372, 47.066567291651424 ] } },
{ "type": "Feature", "properties": { "OBJECTID": 4153, "SAMMELSTELLENNAME": "Waldweg 75", "STRASSENNAME": "Waldweg", "HAUSNUMMER": "75", "BEZIRKS_NR": 13, "BEZIRKSNAME": "Gösting", "LAGE": "gegenüber", "GS_P_INT": 0, "GS_P_TEXT": "nein", "GS_GV_INT": 1, "GS_GV_TEXT": "ja", "GS_AK_INT": 0, "GS_AK_TEXT": "nein", "LINK": "http:\/\/www.umwelt.graz.at\/cms\/ziel\/4927353\/DE\/" }, "geometry": { "type": "Point", "coordinates": [ 15.370450718906419, 47.111875642076399 ] } },
{ "type": "Feature", "properties": { "OBJECTID": 4154, "SAMMELSTELLENNAME": "Eckertstraße 126", "STRASSENNAME": "Eckertstraße", "HAUSNUMMER": "126", "BEZIRKS_NR": 14, "BEZIRKSNAME": "Eggenberg", "LAGE": "Burenstraße, 30 m vor dem Kreisverkehr", "GS_P_INT": 0, "GS_P_TEXT": "nein", "GS_GV_INT": 1, "GS_GV_TEXT": "ja", "GS_AK_INT": 0, "GS_AK_TEXT": "nein", "LINK": "http:\/\/www.umwelt.graz.at\/cms\/ziel\/4927353\/DE\/" }, "geometry": { "type": "Point", "coordinates": [ 15.391711046431322, 47.068742675264936 ] } },
{ "type": "Feature", "properties": { "OBJECTID": 4151, "SAMMELSTELLENNAME": "Stiftingtalstraße 108", "STRASSENNAME": "Stiftingtalstraße", "HAUSNUMMER": "108", "BEZIRKS_NR": 10, "BEZIRKSNAME": "Ries", "LAGE": "Kollonitschstraße", "GS_P_INT": 0, "GS_P_TEXT": "nein", "GS_GV_INT": 1, "GS_GV_TEXT": "ja", "GS_AK_INT": 0, "GS_AK_TEXT": "nein", "LINK": "http:\/\/www.umwelt.graz.at\/cms\/ziel\/4927353\/DE\/" }, "geometry": { "type": "Point", "coordinates": [ 15.478598778366633, 47.08818488201063 ] } },
{ "type": "Feature", "properties": { "OBJECTID": 4155, "SAMMELSTELLENNAME": "Eichbachgasse 52", "STRASSENNAME": "Eichbachgasse", "HAUSNUMMER": "52", "BEZIRKS_NR": 7, "BEZIRKSNAME": "Liebenau", "LAGE": "Kiesgasse", "GS_P_INT": 0, "GS_P_TEXT": "nein", "GS_GV_INT": 1, "GS_GV_TEXT": "ja", "GS_AK_INT": 0, "GS_AK_TEXT": "nein", "LINK": "http:\/\/www.umwelt.graz.at\/cms\/ziel\/4927353\/DE\/" }, "geometry": { "type": "Point", "coordinates": [ 15.458308997077113, 47.023669041361302 ] } },
{ "type": "Feature", "properties": { "OBJECTID": 4156, "SAMMELSTELLENNAME": "Elisabethstraße 85", "STRASSENNAME": "Elisabethstraße", "HAUSNUMMER": "85", "BEZIRKS_NR": 3, "BEZIRKSNAME": "Geidorf", "LAGE": "Rembrandtgasse", "GS_P_INT": 1, "GS_P_TEXT": "ja", "GS_GV_INT": 1, "GS_GV_TEXT": "ja", "GS_AK_INT": 0, "GS_AK_TEXT": "nein", "LINK": "http:\/\/www.umwelt.graz.at\/cms\/ziel\/4927353\/DE\/" }, "geometry": { "type": "Point", "coordinates": [ 15.460051558628646, 47.077459127396622 ] } },
{ "type": "Feature", "properties": { "OBJECTID": 4157, "SAMMELSTELLENNAME": "Steinriegelgasse 2", "STRASSENNAME": "Steinriegelgasse", "HAUSNUMMER": "2", "BEZIRKS_NR": 15, "BEZIRKSNAME": "Wetzelsdorf", "LAGE": "Ecke Steinäckerstraße", "GS_P_INT": 0, "GS_P_TEXT": "nein", "GS_GV_INT": 0, "GS_GV_TEXT": "nein", "GS_AK_INT": 1, "GS_AK_TEXT": "ja", "LINK": "http:\/\/www.umwelt.graz.at\/cms\/ziel\/4927353\/DE\/" }, "geometry": { "type": "Point", "coordinates": [ 15.401000159037798, 47.058733041437513 ] } },
{ "type": "Feature", "properties": { "OBJECTID": 4158, "SAMMELSTELLENNAME": "Wilhelm-Gösser-Gasse 56", "STRASSENNAME": "Wilhelm-Gösser-Gasse", "HAUSNUMMER": "56", "BEZIRKS_NR": 9, "BEZIRKSNAME": "Waltendorf", "LAGE": "gegenüber", "GS_P_INT": 0, "GS_P_TEXT": "nein", "GS_GV_INT": 1, "GS_GV_TEXT": "ja", "GS_AK_INT": 0, "GS_AK_TEXT": "nein", "LINK": "http:\/\/www.umwelt.graz.at\/cms\/ziel\/4927353\/DE\/" }, "geometry": { "type": "Point", "coordinates": [ 15.503016170468445, 47.073641607275533 ] } },
{ "type": "Feature", "properties": { "OBJECTID": 4159, "SAMMELSTELLENNAME": "Wittenbauerstraße 97", "STRASSENNAME": "Wittenbauerstraße", "HAUSNUMMER": "97", "BEZIRKS_NR": 8, "BEZIRKSNAME": "St. Peter", "LAGE": "gegenüber", "GS_P_INT": 0, "GS_P_TEXT": "nein", "GS_GV_INT": 1, "GS_GV_TEXT": "ja", "GS_AK_INT": 0, "GS_AK_TEXT": "nein", "LINK": "http:\/\/www.umwelt.graz.at\/cms\/ziel\/4927353\/DE\/" }, "geometry": { "type": "Point", "coordinates": [ 15.464793426946198, 47.051590670850857 ] } },
{ "type": "Feature", "properties": { "OBJECTID": 4161, "SAMMELSTELLENNAME": "Mitterstraße 73", "STRASSENNAME": "Mitterstraße", "HAUSNUMMER": "73", "BEZIRKS_NR": 17, "BEZIRKSNAME": "Puntigam", "LAGE": "Ecke Grenzgasse", "GS_P_INT": 0, "GS_P_TEXT": "nein", "GS_GV_INT": 0, "GS_GV_TEXT": "nein", "GS_AK_INT": 0, "GS_AK_TEXT": "nein", "LINK": "http:\/\/www.umwelt.graz.at\/cms\/ziel\/4927353\/DE\/" }, "geometry": { "type": "Point", "coordinates": [ 15.430947704208007, 47.019889424479274 ] } },
{ "type": "Feature", "properties": { "OBJECTID": 4160, "SAMMELSTELLENNAME": "Abstallerstraße 41", "STRASSENNAME": "Abstallerstraße", "HAUSNUMMER": "41", "BEZIRKS_NR": 15, "BEZIRKSNAME": "Wetzelsdorf", "LAGE": "Kreuzung Wilhelm-Thöny-Weg (Verkehrsinsel)", "GS_P_INT": 0, "GS_P_TEXT": "nein", "GS_GV_INT": 1, "GS_GV_TEXT": "ja", "GS_AK_INT": 0, "GS_AK_TEXT": "nein", "LINK": "http:\/\/www.umwelt.graz.at\/cms\/ziel\/4927353\/DE\/" }, "geometry": { "type": "Point", "coordinates": [ 15.398545352333693, 47.049960163911997 ] } },
{ "type": "Feature", "properties": { "OBJECTID": 4162, "SAMMELSTELLENNAME": "Rosenberggasse 8", "STRASSENNAME": "Rosenberggasse", "HAUSNUMMER": "8", "BEZIRKS_NR": 3, "BEZIRKSNAME": "Geidorf", "LAGE": "vor dem Haus", "GS_P_INT": 1, "GS_P_TEXT": "ja", "GS_GV_INT": 0, "GS_GV_TEXT": "nein", "GS_AK_INT": 0, "GS_AK_TEXT": "nein", "LINK": "http:\/\/www.umwelt.graz.at\/cms\/ziel\/4927353\/DE\/" }, "geometry": { "type": "Point", "coordinates": [ 15.445599946139875, 47.082586232585122 ] } },
{ "type": "Feature", "properties": { "OBJECTID": 4163, "SAMMELSTELLENNAME": "Theodor-Körner-Straße 131", "STRASSENNAME": "Theodor-Körner-Straße", "HAUSNUMMER": "131", "BEZIRKS_NR": 3, "BEZIRKSNAME": "Geidorf", "LAGE": "Ecke Humperdinckgasse", "GS_P_INT": 1, "GS_P_TEXT": "ja", "GS_GV_INT": 0, "GS_GV_TEXT": "nein", "GS_AK_INT": 0, "GS_AK_TEXT": "nein", "LINK": "http:\/\/www.umwelt.graz.at\/cms\/ziel\/4927353\/DE\/" }, "geometry": { "type": "Point", "coordinates": [ 15.427803022956713, 47.089603314836538 ] } },
{ "type": "Feature", "properties": { "OBJECTID": 4164, "SAMMELSTELLENNAME": "Strauchergasse 32", "STRASSENNAME": "Strauchergasse", "HAUSNUMMER": "32", "BEZIRKS_NR": 4, "BEZIRKSNAME": "Lend", "LAGE": "Ecke Hanuschgasse 6-8", "GS_P_INT": 1, "GS_P_TEXT": "ja", "GS_GV_INT": 0, "GS_GV_TEXT": "nein", "GS_AK_INT": 0, "GS_AK_TEXT": "nein", "LINK": "http:\/\/www.umwelt.graz.at\/cms\/ziel\/4927353\/DE\/" }, "geometry": { "type": "Point", "coordinates": [ 15.425459113590238, 47.071776872463296 ] } },
{ "type": "Feature", "properties": { "OBJECTID": 4165, "SAMMELSTELLENNAME": "Wolkensteingasse 21", "STRASSENNAME": "Wolkensteingasse", "HAUSNUMMER": "21", "BEZIRKS_NR": 4, "BEZIRKSNAME": "Lend", "LAGE": "gegenüber", "GS_P_INT": 1, "GS_P_TEXT": "ja", "GS_GV_INT": 0, "GS_GV_TEXT": "nein", "GS_AK_INT": 0, "GS_AK_TEXT": "nein", "LINK": "http:\/\/www.umwelt.graz.at\/cms\/ziel\/4927353\/DE\/" }, "geometry": { "type": "Point", "coordinates": [ 15.407785586841729, 47.08035451400638 ] } },
{ "type": "Feature", "properties": { "OBJECTID": 4166, "SAMMELSTELLENNAME": "Fabriksgasse 29", "STRASSENNAME": "Fabriksgasse", "HAUSNUMMER": "29", "BEZIRKS_NR": 5, "BEZIRKSNAME": "Gries", "LAGE": "Turmöl", "GS_P_INT": 1, "GS_P_TEXT": "ja", "GS_GV_INT": 0, "GS_GV_TEXT": "nein", "GS_AK_INT": 0, "GS_AK_TEXT": "nein", "LINK": "http:\/\/www.umwelt.graz.at\/cms\/ziel\/4927353\/DE\/" }, "geometry": { "type": "Point", "coordinates": [ 15.426619840388549, 47.059246654851968 ] } },
{ "type": "Feature", "properties": { "OBJECTID": 4167, "SAMMELSTELLENNAME": "Kapellenstraße 13", "STRASSENNAME": "Kapellenstraße", "HAUSNUMMER": "13", "BEZIRKS_NR": 5, "BEZIRKSNAME": "Gries", "LAGE": "gegenüber, Ecke Amselgasse", "GS_P_INT": 1, "GS_P_TEXT": "ja", "GS_GV_INT": 1, "GS_GV_TEXT": "ja", "GS_AK_INT": 0, "GS_AK_TEXT": "nein", "LINK": "http:\/\/www.umwelt.graz.at\/cms\/ziel\/4927353\/DE\/" }, "geometry": { "type": "Point", "coordinates": [ 15.424974991396619, 47.051090256018341 ] } },
{ "type": "Feature", "properties": { "OBJECTID": 4169, "SAMMELSTELLENNAME": "Rosenberggürtel 1", "STRASSENNAME": "Rosenberggürtel", "HAUSNUMMER": "1", "BEZIRKS_NR": 3, "BEZIRKSNAME": "Geidorf", "LAGE": "bei den Garagen", "GS_P_INT": 0, "GS_P_TEXT": "nein", "GS_GV_INT": 1, "GS_GV_TEXT": "ja", "GS_AK_INT": 0, "GS_AK_TEXT": "nein", "LINK": "http:\/\/www.umwelt.graz.at\/cms\/ziel\/4927353\/DE\/" }, "geometry": { "type": "Point", "coordinates": [ 15.449906689473156, 47.080093553343055 ] } },
{ "type": "Feature", "properties": { "OBJECTID": 4170, "SAMMELSTELLENNAME": "Floßlendstraße 19", "STRASSENNAME": "Floßlendstraße", "HAUSNUMMER": "19", "BEZIRKS_NR": 4, "BEZIRKSNAME": "Lend", "LAGE": "Gehsteig, nahe der kreuzung Grimmgasse", "GS_P_INT": 0, "GS_P_TEXT": "nein", "GS_GV_INT": 1, "GS_GV_TEXT": "ja", "GS_AK_INT": 0, "GS_AK_TEXT": "nein", "LINK": "http:\/\/www.umwelt.graz.at\/cms\/ziel\/4927353\/DE\/" }, "geometry": { "type": "Point", "coordinates": [ 15.422925587484873, 47.085593744368452 ] } },
{ "type": "Feature", "properties": { "OBJECTID": 4168, "SAMMELSTELLENNAME": "Liliencrongasse 23", "STRASSENNAME": "Liliencrongasse", "HAUSNUMMER": "23", "BEZIRKS_NR": 3, "BEZIRKSNAME": "Geidorf", "LAGE": "Robert-Stolz-Gasse 6", "GS_P_INT": 1, "GS_P_TEXT": "ja", "GS_GV_INT": 1, "GS_GV_TEXT": "ja", "GS_AK_INT": 0, "GS_AK_TEXT": "nein", "LINK": "http:\/\/www.umwelt.graz.at\/cms\/ziel\/4927353\/DE\/" }, "geometry": { "type": "Point", "coordinates": [ 15.426409276821847, 47.090024737324541 ] } },
{ "type": "Feature", "properties": { "OBJECTID": 4171, "SAMMELSTELLENNAME": "Schönaugasse 121", "STRASSENNAME": "Schönaugasse", "HAUSNUMMER": "121", "BEZIRKS_NR": 6, "BEZIRKSNAME": "Jakomini", "LAGE": "Hüttenbrennergasse 37, Hofer Markt", "GS_P_INT": 0, "GS_P_TEXT": "nein", "GS_GV_INT": 1, "GS_GV_TEXT": "ja", "GS_AK_INT": 0, "GS_AK_TEXT": "nein", "LINK": "http:\/\/www.umwelt.graz.at\/cms\/ziel\/4927353\/DE\/" }, "geometry": { "type": "Point", "coordinates": [ 15.441188813211918, 47.055645571325257 ] } },
{ "type": "Feature", "properties": { "OBJECTID": 4172, "SAMMELSTELLENNAME": "Kasernstraße 70", "STRASSENNAME": "Kasernstraße", "HAUSNUMMER": "70", "BEZIRKS_NR": 7, "BEZIRKSNAME": "Liebenau", "LAGE": "Dr.-Plochl-Straße", "GS_P_INT": 0, "GS_P_TEXT": "nein", "GS_GV_INT": 1, "GS_GV_TEXT": "ja", "GS_AK_INT": 0, "GS_AK_TEXT": "nein", "LINK": "http:\/\/www.umwelt.graz.at\/cms\/ziel\/4927353\/DE\/" }, "geometry": { "type": "Point", "coordinates": [ 15.447678960502349, 47.047175651365492 ] } },
{ "type": "Feature", "properties": { "OBJECTID": 4173, "SAMMELSTELLENNAME": "Mariatroster Straße 41", "STRASSENNAME": "Mariatroster Straße", "HAUSNUMMER": "41", "BEZIRKS_NR": 11, "BEZIRKSNAME": "Mariatrost", "LAGE": "beim Spar", "GS_P_INT": 0, "GS_P_TEXT": "nein", "GS_GV_INT": 1, "GS_GV_TEXT": "ja", "GS_AK_INT": 0, "GS_AK_TEXT": "nein", "LINK": "http:\/\/www.umwelt.graz.at\/cms\/ziel\/4927353\/DE\/" }, "geometry": { "type": "Point", "coordinates": [ 15.459568754741333, 47.09068083506353 ] } },
{ "type": "Feature", "properties": { "OBJECTID": 4174, "SAMMELSTELLENNAME": "Mariatroster Straße 93", "STRASSENNAME": "Mariatroster Straße", "HAUSNUMMER": "93", "BEZIRKS_NR": 11, "BEZIRKSNAME": "Mariatrost", "LAGE": "gegenüber, Reifentalgasse", "GS_P_INT": 0, "GS_P_TEXT": "nein", "GS_GV_INT": 1, "GS_GV_TEXT": "ja", "GS_AK_INT": 0, "GS_AK_TEXT": "nein", "LINK": "http:\/\/www.umwelt.graz.at\/cms\/ziel\/4927353\/DE\/" }, "geometry": { "type": "Point", "coordinates": [ 15.463549629171279, 47.094506530386752 ] } },
{ "type": "Feature", "properties": { "OBJECTID": 4175, "SAMMELSTELLENNAME": "Mariatroster Straße 194", "STRASSENNAME": "Mariatroster Straße", "HAUSNUMMER": "194", "BEZIRKS_NR": 11, "BEZIRKSNAME": "Mariatrost", "LAGE": "gegenüber, Ecke Blümmelhofweg", "GS_P_INT": 0, "GS_P_TEXT": "nein", "GS_GV_INT": 1, "GS_GV_TEXT": "ja", "GS_AK_INT": 0, "GS_AK_TEXT": "nein", "LINK": "http:\/\/www.umwelt.graz.at\/cms\/ziel\/4927353\/DE\/" }, "geometry": { "type": "Point", "coordinates": [ 15.487530104350727, 47.104471603940389 ] } },
{ "type": "Feature", "properties": { "OBJECTID": 4176, "SAMMELSTELLENNAME": "Zelinkagasse 1", "STRASSENNAME": "Zelinkagasse", "HAUSNUMMER": "1", "BEZIRKS_NR": 12, "BEZIRKSNAME": "Andritz", "LAGE": "Parckplatz, Hecke", "GS_P_INT": 0, "GS_P_TEXT": "nein", "GS_GV_INT": 1, "GS_GV_TEXT": "ja", "GS_AK_INT": 0, "GS_AK_TEXT": "nein", "LINK": "http:\/\/www.umwelt.graz.at\/cms\/ziel\/4927353\/DE\/" }, "geometry": { "type": "Point", "coordinates": [ 15.423401609182962, 47.103439957502999 ] } },
{ "type": "Feature", "properties": { "OBJECTID": 4177, "SAMMELSTELLENNAME": "Wiener Straße 229", "STRASSENNAME": "Wiener Straße", "HAUSNUMMER": "229", "BEZIRKS_NR": 13, "BEZIRKSNAME": "Gösting", "LAGE": "Otto Reisen gegenüber bei der Fa. Wittwar", "GS_P_INT": 0, "GS_P_TEXT": "nein", "GS_GV_INT": 1, "GS_GV_TEXT": "ja", "GS_AK_INT": 0, "GS_AK_TEXT": "nein", "LINK": "http:\/\/www.umwelt.graz.at\/cms\/ziel\/4927353\/DE\/" }, "geometry": { "type": "Point", "coordinates": [ 15.40754346117474, 47.091486672749937 ] } },
{ "type": "Feature", "properties": { "OBJECTID": 4178, "SAMMELSTELLENNAME": "Handelstraße 39", "STRASSENNAME": "Handelstraße", "HAUSNUMMER": "39", "BEZIRKS_NR": 14, "BEZIRKSNAME": "Eggenberg", "LAGE": "Ecke Burenstraße", "GS_P_INT": 0, "GS_P_TEXT": "nein", "GS_GV_INT": 1, "GS_GV_TEXT": "ja", "GS_AK_INT": 0, "GS_AK_TEXT": "nein", "LINK": "http:\/\/www.umwelt.graz.at\/cms\/ziel\/4927353\/DE\/" }, "geometry": { "type": "Point", "coordinates": [ 15.392504032870397, 47.063117808991386 ] } },
{ "type": "Feature", "properties": { "OBJECTID": 4179, "SAMMELSTELLENNAME": "Steinbergstraße 68", "STRASSENNAME": "Steinbergstraße", "HAUSNUMMER": "68", "BEZIRKS_NR": 14, "BEZIRKSNAME": "Eggenberg", "LAGE": null, "GS_P_INT": 0, "GS_P_TEXT": "nein", "GS_GV_INT": 1, "GS_GV_TEXT": "ja", "GS_AK_INT": 0, "GS_AK_TEXT": "nein", "LINK": "http:\/\/www.umwelt.graz.at\/cms\/ziel\/4927353\/DE\/" }, "geometry": { "type": "Point", "coordinates": [ 15.369542755932335, 47.052802375878166 ] } },
{ "type": "Feature", "properties": { "OBJECTID": 4180, "SAMMELSTELLENNAME": "Wetzelsdorfer Straße 139", "STRASSENNAME": "Wetzelsdorfer Straße", "HAUSNUMMER": "139", "BEZIRKS_NR": 15, "BEZIRKSNAME": "Wetzelsdorf", "LAGE": "am Gehsteig", "GS_P_INT": 0, "GS_P_TEXT": "nein", "GS_GV_INT": 1, "GS_GV_TEXT": "ja", "GS_AK_INT": 0, "GS_AK_TEXT": "nein", "LINK": "http:\/\/www.umwelt.graz.at\/cms\/ziel\/4927353\/DE\/" }, "geometry": { "type": "Point", "coordinates": [ 15.394969707297728, 47.059751346352719 ] } },
{ "type": "Feature", "properties": { "OBJECTID": 4181, "SAMMELSTELLENNAME": "Kärntner Straße 416", "STRASSENNAME": "Kärntner Straße", "HAUSNUMMER": "416", "BEZIRKS_NR": 16, "BEZIRKSNAME": "Straßgang", "LAGE": "neben der Drogerie \"Florian\"", "GS_P_INT": 0, "GS_P_TEXT": "nein", "GS_GV_INT": 1, "GS_GV_TEXT": "ja", "GS_AK_INT": 0, "GS_AK_TEXT": "nein", "LINK": "http:\/\/www.umwelt.graz.at\/cms\/ziel\/4927353\/DE\/" }, "geometry": { "type": "Point", "coordinates": [ 15.400135571604235, 47.022274172193228 ] } },
{ "type": "Feature", "properties": { "OBJECTID": 4182, "SAMMELSTELLENNAME": "Ruthardweg 53", "STRASSENNAME": "Ruthardweg", "HAUSNUMMER": "53", "BEZIRKS_NR": 17, "BEZIRKSNAME": "Puntigam", "LAGE": null, "GS_P_INT": 0, "GS_P_TEXT": "nein", "GS_GV_INT": 0, "GS_GV_TEXT": "nein", "GS_AK_INT": 0, "GS_AK_TEXT": "nein", "LINK": "http:\/\/www.umwelt.graz.at\/cms\/ziel\/4927353\/DE\/" }, "geometry": { "type": "Point", "coordinates": [ 15.439677898327288, 47.025621734012965 ] } },
{ "type": "Feature", "properties": { "OBJECTID": 4183, "SAMMELSTELLENNAME": "Steinbergstraße 81", "STRASSENNAME": "Steinbergstraße", "HAUSNUMMER": "81", "BEZIRKS_NR": 15, "BEZIRKSNAME": "Wetzelsdorf", "LAGE": "gegenüber bei der Haltestelle", "GS_P_INT": 0, "GS_P_TEXT": "nein", "GS_GV_INT": 0, "GS_GV_TEXT": "nein", "GS_AK_INT": 0, "GS_AK_TEXT": "nein", "LINK": "http:\/\/www.umwelt.graz.at\/cms\/ziel\/4927353\/DE\/" }, "geometry": { "type": "Point", "coordinates": [ 15.368501877412161, 47.050893722780899 ] } },
{ "type": "Feature", "properties": { "OBJECTID": 4184, "SAMMELSTELLENNAME": "Waltendorfer Hauptstraße 73", "STRASSENNAME": "Waltendorfer Hauptstraße", "HAUSNUMMER": "73", "BEZIRKS_NR": 9, "BEZIRKSNAME": "Waltendorf", "LAGE": "gegenüber", "GS_P_INT": 0, "GS_P_TEXT": "nein", "GS_GV_INT": 0, "GS_GV_TEXT": "nein", "GS_AK_INT": 0, "GS_AK_TEXT": "nein", "LINK": "http:\/\/www.umwelt.graz.at\/cms\/ziel\/4927353\/DE\/" }, "geometry": { "type": "Point", "coordinates": [ 15.476131286178742, 47.066479949808567 ] } },
{ "type": "Feature", "properties": { "OBJECTID": 4186, "SAMMELSTELLENNAME": "Wiener Straße 197", "STRASSENNAME": "Wiener Straße", "HAUSNUMMER": "197", "BEZIRKS_NR": 13, "BEZIRKSNAME": "Gösting", "LAGE": "Josef-Pock-Straße 3a, neben der Bushaltestelle", "GS_P_INT": 0, "GS_P_TEXT": "nein", "GS_GV_INT": 1, "GS_GV_TEXT": "ja", "GS_AK_INT": 0, "GS_AK_TEXT": "nein", "LINK": "http:\/\/www.umwelt.graz.at\/cms\/ziel\/4927353\/DE\/" }, "geometry": { "type": "Point", "coordinates": [ 15.411408993916044, 47.087832041663667 ] } },
{ "type": "Feature", "properties": { "OBJECTID": 4187, "SAMMELSTELLENNAME": "Wormgasse 11", "STRASSENNAME": "Wormgasse", "HAUSNUMMER": "11", "BEZIRKS_NR": 3, "BEZIRKSNAME": "Geidorf", "LAGE": "Bergmanngasse, hinter d. Trafik", "GS_P_INT": 1, "GS_P_TEXT": "ja", "GS_GV_INT": 1, "GS_GV_TEXT": "ja", "GS_AK_INT": 0, "GS_AK_TEXT": "nein", "LINK": "http:\/\/www.umwelt.graz.at\/cms\/ziel\/4927353\/DE\/" }, "geometry": { "type": "Point", "coordinates": [ 15.441901669723965, 47.07924160906898 ] } },
{ "type": "Feature", "properties": { "OBJECTID": 4188, "SAMMELSTELLENNAME": "Zahläckerweg 4", "STRASSENNAME": "Zahläckerweg", "HAUSNUMMER": "4", "BEZIRKS_NR": 16, "BEZIRKSNAME": "Straßgang", "LAGE": "gegenüber an der Ecke Schwarzer Weg", "GS_P_INT": 0, "GS_P_TEXT": "nein", "GS_GV_INT": 1, "GS_GV_TEXT": "ja", "GS_AK_INT": 1, "GS_AK_TEXT": "ja", "LINK": "http:\/\/www.umwelt.graz.at\/cms\/ziel\/4927353\/DE\/" }, "geometry": { "type": "Point", "coordinates": [ 15.407126006311231, 47.030368513383458 ] } },
{ "type": "Feature", "properties": { "OBJECTID": 4185, "SAMMELSTELLENNAME": "Ziegelstraße 83", "STRASSENNAME": "Ziegelstraße", "HAUSNUMMER": "83", "BEZIRKS_NR": 12, "BEZIRKSNAME": "Andritz", "LAGE": "Ecke Seminarstraße", "GS_P_INT": 0, "GS_P_TEXT": "nein", "GS_GV_INT": 0, "GS_GV_TEXT": "nein", "GS_AK_INT": 0, "GS_AK_TEXT": "nein", "LINK": "http:\/\/www.umwelt.graz.at\/cms\/ziel\/4927353\/DE\/" }, "geometry": { "type": "Point", "coordinates": [ 15.439811090836896, 47.102982451469707 ] } },
{ "type": "Feature", "properties": { "OBJECTID": 4189, "SAMMELSTELLENNAME": "Schillerstraße 10", "STRASSENNAME": "Schillerstraße", "HAUSNUMMER": "10", "BEZIRKS_NR": 2, "BEZIRKSNAME": "St. Leonhard", "LAGE": "bei der Plakatwand", "GS_P_INT": 0, "GS_P_TEXT": "nein", "GS_GV_INT": 1, "GS_GV_TEXT": "ja", "GS_AK_INT": 0, "GS_AK_TEXT": "nein", "LINK": "http:\/\/www.umwelt.graz.at\/cms\/ziel\/4927353\/DE\/" }, "geometry": { "type": "Point", "coordinates": [ 15.451643486468372, 47.071640381526137 ] } },
{ "type": "Feature", "properties": { "OBJECTID": 4190, "SAMMELSTELLENNAME": "Schönbrunngasse 21", "STRASSENNAME": "Schönbrunngasse", "HAUSNUMMER": "21", "BEZIRKS_NR": 3, "BEZIRKSNAME": "Geidorf", "LAGE": "Ziernfeldgasse", "GS_P_INT": 1, "GS_P_TEXT": "ja", "GS_GV_INT": 1, "GS_GV_TEXT": "ja", "GS_AK_INT": 0, "GS_AK_TEXT": "nein", "LINK": "http:\/\/www.umwelt.graz.at\/cms\/ziel\/4927353\/DE\/" }, "geometry": { "type": "Point", "coordinates": [ 15.454429935667433, 47.088334871903363 ] } },
{ "type": "Feature", "properties": { "OBJECTID": 4191, "SAMMELSTELLENNAME": "Algersdorfer Straße 65", "STRASSENNAME": "Algersdorfer Straße", "HAUSNUMMER": "65", "BEZIRKS_NR": 14, "BEZIRKSNAME": "Eggenberg", "LAGE": "an der Ecke Blümelstraße", "GS_P_INT": 0, "GS_P_TEXT": "nein", "GS_GV_INT": 1, "GS_GV_TEXT": "ja", "GS_AK_INT": 1, "GS_AK_TEXT": "ja", "LINK": "http:\/\/www.umwelt.graz.at\/cms\/ziel\/4927353\/DE\/" }, "geometry": { "type": "Point", "coordinates": [ 15.402293743043062, 47.079475229606352 ] } },
{ "type": "Feature", "properties": { "OBJECTID": 4192, "SAMMELSTELLENNAME": "Kärntner Straße 4", "STRASSENNAME": "Kärntner Straße", "HAUSNUMMER": "4", "BEZIRKS_NR": 5, "BEZIRKSNAME": "Gries", "LAGE": null, "GS_P_INT": 0, "GS_P_TEXT": "nein", "GS_GV_INT": 0, "GS_GV_TEXT": "nein", "GS_AK_INT": 0, "GS_AK_TEXT": "nein", "LINK": "http:\/\/www.umwelt.graz.at\/cms\/ziel\/4927353\/DE\/" }, "geometry": { "type": "Point", "coordinates": [ 15.423282028182426, 47.062662993853223 ] } },
{ "type": "Feature", "properties": { "OBJECTID": 4193, "SAMMELSTELLENNAME": "Hafnerstraße 107", "STRASSENNAME": "Hafnerstraße", "HAUSNUMMER": "107", "BEZIRKS_NR": 17, "BEZIRKSNAME": "Puntigam", "LAGE": null, "GS_P_INT": 0, "GS_P_TEXT": "nein", "GS_GV_INT": 1, "GS_GV_TEXT": "ja", "GS_AK_INT": 0, "GS_AK_TEXT": "nein", "LINK": "http:\/\/www.umwelt.graz.at\/cms\/ziel\/4927353\/DE\/" }, "geometry": { "type": "Point", "coordinates": [ 15.417083415389936, 47.025450435752468 ] } },
{ "type": "Feature", "properties": { "OBJECTID": 4194, "SAMMELSTELLENNAME": "Laubgasse 49", "STRASSENNAME": "Laubgasse", "HAUSNUMMER": "49", "BEZIRKS_NR": 5, "BEZIRKSNAME": "Gries", "LAGE": "Tiergartenweg", "GS_P_INT": 0, "GS_P_TEXT": "nein", "GS_GV_INT": 1, "GS_GV_TEXT": "ja", "GS_AK_INT": 0, "GS_AK_TEXT": "nein", "LINK": "http:\/\/www.umwelt.graz.at\/cms\/ziel\/4927353\/DE\/" }, "geometry": { "type": "Point", "coordinates": [ 15.435227813942165, 47.041835105698233 ] } },
{ "type": "Feature", "properties": { "OBJECTID": 4195, "SAMMELSTELLENNAME": "Melanweg 1", "STRASSENNAME": "Melanweg", "HAUSNUMMER": "1", "BEZIRKS_NR": 17, "BEZIRKSNAME": "Puntigam", "LAGE": "Guldinweg", "GS_P_INT": 0, "GS_P_TEXT": "nein", "GS_GV_INT": 1, "GS_GV_TEXT": "ja", "GS_AK_INT": 0, "GS_AK_TEXT": "nein", "LINK": "http:\/\/www.umwelt.graz.at\/cms\/ziel\/4927353\/DE\/" }, "geometry": { "type": "Point", "coordinates": [ 15.420033718527366, 47.027287504063409 ] } },
{ "type": "Feature", "properties": { "OBJECTID": 4196, "SAMMELSTELLENNAME": "Rudersdorfer Straße 35", "STRASSENNAME": "Rudersdorfer Straße", "HAUSNUMMER": "35", "BEZIRKS_NR": 17, "BEZIRKSNAME": "Puntigam", "LAGE": null, "GS_P_INT": 0, "GS_P_TEXT": "nein", "GS_GV_INT": 1, "GS_GV_TEXT": "ja", "GS_AK_INT": 0, "GS_AK_TEXT": "nein", "LINK": "http:\/\/www.umwelt.graz.at\/cms\/ziel\/4927353\/DE\/" }, "geometry": { "type": "Point", "coordinates": [ 15.441795186441608, 47.029311193792566 ] } },
{ "type": "Feature", "properties": { "OBJECTID": 4197, "SAMMELSTELLENNAME": "Rudersdorfer Straße 98", "STRASSENNAME": "Rudersdorfer Straße", "HAUSNUMMER": "98", "BEZIRKS_NR": 17, "BEZIRKSNAME": "Puntigam", "LAGE": "Ecke Kreuzfelderweg", "GS_P_INT": 0, "GS_P_TEXT": "nein", "GS_GV_INT": 1, "GS_GV_TEXT": "ja", "GS_AK_INT": 0, "GS_AK_TEXT": "nein", "LINK": "http:\/\/www.umwelt.graz.at\/cms\/ziel\/4927353\/DE\/" }, "geometry": { "type": "Point", "coordinates": [ 15.442333919800079, 47.023180785933334 ] } },
{ "type": "Feature", "properties": { "OBJECTID": 4198, "SAMMELSTELLENNAME": "Ruthardweg 33", "STRASSENNAME": "Ruthardweg", "HAUSNUMMER": "33", "BEZIRKS_NR": 17, "BEZIRKSNAME": "Puntigam", "LAGE": null, "GS_P_INT": 0, "GS_P_TEXT": "nein", "GS_GV_INT": 1, "GS_GV_TEXT": "ja", "GS_AK_INT": 0, "GS_AK_TEXT": "nein", "LINK": "http:\/\/www.umwelt.graz.at\/cms\/ziel\/4927353\/DE\/" }, "geometry": { "type": "Point", "coordinates": [ 15.438287250094334, 47.026544085962456 ] } },
{ "type": "Feature", "properties": { "OBJECTID": 4199, "SAMMELSTELLENNAME": "Spitzäckerweg 62", "STRASSENNAME": "Spitzäckerweg", "HAUSNUMMER": "62", "BEZIRKS_NR": 17, "BEZIRKSNAME": "Puntigam", "LAGE": "gegenüber", "GS_P_INT": 0, "GS_P_TEXT": "nein", "GS_GV_INT": 1, "GS_GV_TEXT": "ja", "GS_AK_INT": 0, "GS_AK_TEXT": "nein", "LINK": "http:\/\/www.umwelt.graz.at\/cms\/ziel\/4927353\/DE\/" }, "geometry": { "type": "Point", "coordinates": [ 15.424085918440264, 47.019411444444145 ] } },
{ "type": "Feature", "properties": { "OBJECTID": 4200, "SAMMELSTELLENNAME": "Zeppelinstraße 1", "STRASSENNAME": "Zeppelinstraße", "HAUSNUMMER": "1", "BEZIRKS_NR": 17, "BEZIRKSNAME": "Puntigam", "LAGE": "Ecke Hans-Groß-Gasse", "GS_P_INT": 0, "GS_P_TEXT": "nein", "GS_GV_INT": 1, "GS_GV_TEXT": "ja", "GS_AK_INT": 1, "GS_AK_TEXT": "ja", "LINK": "http:\/\/www.umwelt.graz.at\/cms\/ziel\/4927353\/DE\/" }, "geometry": { "type": "Point", "coordinates": [ 15.425979783351787, 47.042815506033229 ] } },
{ "type": "Feature", "properties": { "OBJECTID": 4201, "SAMMELSTELLENNAME": "Steinbergstraße 53", "STRASSENNAME": "Steinbergstraße", "HAUSNUMMER": "53", "BEZIRKS_NR": 15, "BEZIRKSNAME": "Wetzelsdorf", "LAGE": "Ecke Hofstättenweg", "GS_P_INT": 0, "GS_P_TEXT": "nein", "GS_GV_INT": 0, "GS_GV_TEXT": "nein", "GS_AK_INT": 0, "GS_AK_TEXT": "nein", "LINK": "http:\/\/www.umwelt.graz.at\/cms\/ziel\/4927353\/DE\/" }, "geometry": { "type": "Point", "coordinates": [ 15.369765992023927, 47.052534866596353 ] } },
{ "type": "Feature", "properties": { "OBJECTID": 4118, "SAMMELSTELLENNAME": "Eichbachgasse 61", "STRASSENNAME": "Eichbachgasse", "HAUSNUMMER": "61", "BEZIRKS_NR": 7, "BEZIRKSNAME": "Liebenau", "LAGE": "Hortgasse", "GS_P_INT": 0, "GS_P_TEXT": "nein", "GS_GV_INT": 1, "GS_GV_TEXT": "ja", "GS_AK_INT": 0, "GS_AK_TEXT": "nein", "LINK": "http:\/\/www.umwelt.graz.at\/cms\/ziel\/4927353\/DE\/" }, "geometry": { "type": "Point", "coordinates": [ 15.458054386311757, 47.024427721691211 ] } },
{ "type": "Feature", "properties": { "OBJECTID": 4119, "SAMMELSTELLENNAME": "Fischergasse 20", "STRASSENNAME": "Fischergasse", "HAUSNUMMER": "20", "BEZIRKS_NR": 3, "BEZIRKSNAME": "Geidorf", "LAGE": "Spar, im Holzverbau", "GS_P_INT": 1, "GS_P_TEXT": "ja", "GS_GV_INT": 1, "GS_GV_TEXT": "ja", "GS_AK_INT": 0, "GS_AK_TEXT": "nein", "LINK": "http:\/\/www.umwelt.graz.at\/cms\/ziel\/4927353\/DE\/" }, "geometry": { "type": "Point", "coordinates": [ 15.427851130823623, 47.086756286332431 ] } },
{ "type": "Feature", "properties": { "OBJECTID": 4120, "SAMMELSTELLENNAME": "Grafenbergstraße 9", "STRASSENNAME": "Grafenbergstraße", "HAUSNUMMER": "9", "BEZIRKS_NR": 13, "BEZIRKSNAME": "Gösting", "LAGE": null, "GS_P_INT": 0, "GS_P_TEXT": "nein", "GS_GV_INT": 1, "GS_GV_TEXT": "ja", "GS_AK_INT": 0, "GS_AK_TEXT": "nein", "LINK": "http:\/\/www.umwelt.graz.at\/cms\/ziel\/4927353\/DE\/" }, "geometry": { "type": "Point", "coordinates": [ 15.401689450880763, 47.09324635252203 ] } },
{ "type": "Feature", "properties": { "OBJECTID": 4121, "SAMMELSTELLENNAME": "Mariatroster Straße 62", "STRASSENNAME": "Mariatroster Straße", "HAUSNUMMER": "62", "BEZIRKS_NR": 11, "BEZIRKSNAME": "Mariatrost", "LAGE": "Ecke Wiesingergasse", "GS_P_INT": 0, "GS_P_TEXT": "nein", "GS_GV_INT": 1, "GS_GV_TEXT": "ja", "GS_AK_INT": 0, "GS_AK_TEXT": "nein", "LINK": "http:\/\/www.umwelt.graz.at\/cms\/ziel\/4927353\/DE\/" }, "geometry": { "type": "Point", "coordinates": [ 15.463382798969352, 47.094096148930127 ] } },
{ "type": "Feature", "properties": { "OBJECTID": 4122, "SAMMELSTELLENNAME": "Harmsdorfgasse 12", "STRASSENNAME": "Harmsdorfgasse", "HAUSNUMMER": "12", "BEZIRKS_NR": 6, "BEZIRKSNAME": "Jakomini", "LAGE": "Ecke Weinholdstraße, Straßenrand", "GS_P_INT": 1, "GS_P_TEXT": "ja", "GS_GV_INT": 1, "GS_GV_TEXT": "ja", "GS_AK_INT": 0, "GS_AK_TEXT": "nein", "LINK": "http:\/\/www.umwelt.graz.at\/cms\/ziel\/4927353\/DE\/" }, "geometry": { "type": "Point", "coordinates": [ 15.456720360652207, 47.050635520869491 ] } },
{ "type": "Feature", "properties": { "OBJECTID": 4123, "SAMMELSTELLENNAME": "Kaiser-Franz-Josef-Kai 72", "STRASSENNAME": "Kaiser-Franz-Josef-Kai", "HAUSNUMMER": "72", "BEZIRKS_NR": 1, "BEZIRKSNAME": "Innere Stadt", "LAGE": "Gehsteig vor dem Umspannwerk", "GS_P_INT": 0, "GS_P_TEXT": "nein", "GS_GV_INT": 1, "GS_GV_TEXT": "ja", "GS_AK_INT": 0, "GS_AK_TEXT": "nein", "LINK": "http:\/\/www.umwelt.graz.at\/cms\/ziel\/4927353\/DE\/" }, "geometry": { "type": "Point", "coordinates": [ 15.433857138455954, 47.077128656269132 ] } },
{ "type": "Feature", "properties": { "OBJECTID": 4124, "SAMMELSTELLENNAME": "Kantgasse 15", "STRASSENNAME": "Kantgasse", "HAUSNUMMER": "15", "BEZIRKS_NR": 5, "BEZIRKSNAME": "Gries", "LAGE": "gegenüber, Sechsundzwanziger Schützen-Gasse", "GS_P_INT": 1, "GS_P_TEXT": "ja", "GS_GV_INT": 1, "GS_GV_TEXT": "ja", "GS_AK_INT": 0, "GS_AK_TEXT": "nein", "LINK": "http:\/\/www.umwelt.graz.at\/cms\/ziel\/4927353\/DE\/" }, "geometry": { "type": "Point", "coordinates": [ 15.425957305749797, 47.048346094561893 ] } },
{ "type": "Feature", "properties": { "OBJECTID": 4125, "SAMMELSTELLENNAME": "Kärntner Straße 30", "STRASSENNAME": "Kärntner Straße", "HAUSNUMMER": "30", "BEZIRKS_NR": 5, "BEZIRKSNAME": "Gries", "LAGE": "Piterello, hinter dem Haus", "GS_P_INT": 0, "GS_P_TEXT": "nein", "GS_GV_INT": 0, "GS_GV_TEXT": "nein", "GS_AK_INT": 1, "GS_AK_TEXT": "ja", "LINK": "http:\/\/www.umwelt.graz.at\/cms\/ziel\/4927353\/DE\/" }, "geometry": { "type": "Point", "coordinates": [ 15.420527766140493, 47.060526236886744 ] } },
{ "type": "Feature", "properties": { "OBJECTID": 4126, "SAMMELSTELLENNAME": "Wittenbauerstraße 67", "STRASSENNAME": "Wittenbauerstraße", "HAUSNUMMER": "67", "BEZIRKS_NR": 6, "BEZIRKSNAME": "Jakomini", "LAGE": null, "GS_P_INT": 1, "GS_P_TEXT": "ja", "GS_GV_INT": 0, "GS_GV_TEXT": "nein", "GS_AK_INT": 0, "GS_AK_TEXT": "nein", "LINK": "http:\/\/www.umwelt.graz.at\/cms\/ziel\/4927353\/DE\/" }, "geometry": { "type": "Point", "coordinates": [ 15.46210466031151, 47.054713095522267 ] } },
{ "type": "Feature", "properties": { "OBJECTID": 4127, "SAMMELSTELLENNAME": "Millöckergasse 41", "STRASSENNAME": "Millöckergasse", "HAUSNUMMER": "41", "BEZIRKS_NR": 3, "BEZIRKSNAME": "Geidorf", "LAGE": "Ecke Wilhelm-Raabe-Gasse", "GS_P_INT": 0, "GS_P_TEXT": "nein", "GS_GV_INT": 1, "GS_GV_TEXT": "ja", "GS_AK_INT": 0, "GS_AK_TEXT": "nein", "LINK": "http:\/\/www.umwelt.graz.at\/cms\/ziel\/4927353\/DE\/" }, "geometry": { "type": "Point", "coordinates": [ 15.433360760967735, 47.086599386232223 ] } },
{ "type": "Feature", "properties": { "OBJECTID": 4128, "SAMMELSTELLENNAME": "Reinbacherweg 38", "STRASSENNAME": "Reinbacherweg", "HAUSNUMMER": "38", "BEZIRKS_NR": 14, "BEZIRKSNAME": "Eggenberg", "LAGE": "beim Schild \"zu den Häusern 38-40\"", "GS_P_INT": 0, "GS_P_TEXT": "nein", "GS_GV_INT": 1, "GS_GV_TEXT": "ja", "GS_AK_INT": 0, "GS_AK_TEXT": "nein", "LINK": "http:\/\/www.umwelt.graz.at\/cms\/ziel\/4927353\/DE\/" }, "geometry": { "type": "Point", "coordinates": [ 15.411006757992476, 47.087430583042526 ] } },
{ "type": "Feature", "properties": { "OBJECTID": 4129, "SAMMELSTELLENNAME": "Staatsbahnstraße 43", "STRASSENNAME": "Staatsbahnstraße", "HAUSNUMMER": "43", "BEZIRKS_NR": 5, "BEZIRKSNAME": "Gries", "LAGE": "Ecke Buchkoglgasse", "GS_P_INT": 1, "GS_P_TEXT": "ja", "GS_GV_INT": 1, "GS_GV_TEXT": "ja", "GS_AK_INT": 0, "GS_AK_TEXT": "nein", "LINK": "http:\/\/www.umwelt.graz.at\/cms\/ziel\/4927353\/DE\/" }, "geometry": { "type": "Point", "coordinates": [ 15.423951652688531, 47.056079840225259 ] } },
{ "type": "Feature", "properties": { "OBJECTID": 4130, "SAMMELSTELLENNAME": "Hochkoflerweg 24", "STRASSENNAME": "Hochkoflerweg", "HAUSNUMMER": "24", "BEZIRKS_NR": 16, "BEZIRKSNAME": "Straßgang", "LAGE": null, "GS_P_INT": 0, "GS_P_TEXT": "nein", "GS_GV_INT": 1, "GS_GV_TEXT": "ja", "GS_AK_INT": 0, "GS_AK_TEXT": "nein", "LINK": "http:\/\/www.umwelt.graz.at\/cms\/ziel\/4927353\/DE\/" }, "geometry": { "type": "Point", "coordinates": [ 15.408647453786566, 47.026861131208811 ] } },
{ "type": "Feature", "properties": { "OBJECTID": 4131, "SAMMELSTELLENNAME": "Baiernstraße 72", "STRASSENNAME": "Baiernstraße", "HAUSNUMMER": "72", "BEZIRKS_NR": 14, "BEZIRKSNAME": "Eggenberg", "LAGE": "gegenüber", "GS_P_INT": 0, "GS_P_TEXT": "nein", "GS_GV_INT": 1, "GS_GV_TEXT": "ja", "GS_AK_INT": 1, "GS_AK_TEXT": "ja", "LINK": "http:\/\/www.umwelt.graz.at\/cms\/ziel\/4927353\/DE\/" }, "geometry": { "type": "Point", "coordinates": [ 15.38891740834422, 47.069055730764354 ] } },
{ "type": "Feature", "properties": { "OBJECTID": 4132, "SAMMELSTELLENNAME": "Klusemannstraße 21", "STRASSENNAME": "Klusemannstraße", "HAUSNUMMER": "21", "BEZIRKS_NR": 16, "BEZIRKSNAME": "Straßgang", "LAGE": "Matthias-Scheiner-Weg", "GS_P_INT": 0, "GS_P_TEXT": "nein", "GS_GV_INT": 1, "GS_GV_TEXT": "ja", "GS_AK_INT": 0, "GS_AK_TEXT": "nein", "LINK": "http:\/\/www.umwelt.graz.at\/cms\/ziel\/4927353\/DE\/" }, "geometry": { "type": "Point", "coordinates": [ 15.409638574306886, 47.046202248670625 ] } },
{ "type": "Feature", "properties": { "OBJECTID": 4133, "SAMMELSTELLENNAME": "Lendkai 47", "STRASSENNAME": "Lendkai", "HAUSNUMMER": "47", "BEZIRKS_NR": 4, "BEZIRKSNAME": "Lend", "LAGE": "gegenüber, am Gehsteig", "GS_P_INT": 0, "GS_P_TEXT": "nein", "GS_GV_INT": 1, "GS_GV_TEXT": "ja", "GS_AK_INT": 1, "GS_AK_TEXT": "ja", "LINK": "http:\/\/www.umwelt.graz.at\/cms\/ziel\/4927353\/DE\/" }, "geometry": { "type": "Point", "coordinates": [ 15.433050403966234, 47.075683380644421 ] } },
{ "type": "Feature", "properties": { "OBJECTID": 4134, "SAMMELSTELLENNAME": "Negrelligasse 25", "STRASSENNAME": "Negrelligasse", "HAUSNUMMER": "25", "BEZIRKS_NR": 13, "BEZIRKSNAME": "Gösting", "LAGE": "Ecke Göstinger Straße", "GS_P_INT": 0, "GS_P_TEXT": "nein", "GS_GV_INT": 1, "GS_GV_TEXT": "ja", "GS_AK_INT": 0, "GS_AK_TEXT": "nein", "LINK": "http:\/\/www.umwelt.graz.at\/cms\/ziel\/4927353\/DE\/" }, "geometry": { "type": "Point", "coordinates": [ 15.397944339865088, 47.090561328654054 ] } },
{ "type": "Feature", "properties": { "OBJECTID": 4135, "SAMMELSTELLENNAME": "Petrifelderstraße 41", "STRASSENNAME": "Petrifelderstraße", "HAUSNUMMER": "41", "BEZIRKS_NR": 8, "BEZIRKSNAME": "St. Peter", "LAGE": "Ecke Eichenweg", "GS_P_INT": 0, "GS_P_TEXT": "nein", "GS_GV_INT": 1, "GS_GV_TEXT": "ja", "GS_AK_INT": 0, "GS_AK_TEXT": "nein", "LINK": "http:\/\/www.umwelt.graz.at\/cms\/ziel\/4927353\/DE\/" }, "geometry": { "type": "Point", "coordinates": [ 15.468857000978886, 47.04991423526053 ] } },
{ "type": "Feature", "properties": { "OBJECTID": 4136, "SAMMELSTELLENNAME": "Porscheweg 9", "STRASSENNAME": "Porscheweg", "HAUSNUMMER": "9", "BEZIRKS_NR": 7, "BEZIRKSNAME": "Liebenau", "LAGE": "Nikolaus-Otto-Weg", "GS_P_INT": 0, "GS_P_TEXT": "nein", "GS_GV_INT": 1, "GS_GV_TEXT": "ja", "GS_AK_INT": 0, "GS_AK_TEXT": "nein", "LINK": "http:\/\/www.umwelt.graz.at\/cms\/ziel\/4927353\/DE\/" }, "geometry": { "type": "Point", "coordinates": [ 15.462783274750283, 47.020891457807735 ] } },
{ "type": "Feature", "properties": { "OBJECTID": 4137, "SAMMELSTELLENNAME": "Ragnitzstraße 134", "STRASSENNAME": "Ragnitzstraße", "HAUSNUMMER": "134", "BEZIRKS_NR": 10, "BEZIRKSNAME": "Ries", "LAGE": "Ecke Macherstraße", "GS_P_INT": 0, "GS_P_TEXT": "nein", "GS_GV_INT": 1, "GS_GV_TEXT": "ja", "GS_AK_INT": 0, "GS_AK_TEXT": "nein", "LINK": "http:\/\/www.umwelt.graz.at\/cms\/ziel\/4927353\/DE\/" }, "geometry": { "type": "Point", "coordinates": [ 15.487468204981763, 47.078025158599914 ] } },
{ "type": "Feature", "properties": { "OBJECTID": 4138, "SAMMELSTELLENNAME": "Elisabethstraße 91", "STRASSENNAME": "Elisabethstraße", "HAUSNUMMER": "91", "BEZIRKS_NR": 3, "BEZIRKSNAME": "Geidorf", "LAGE": "am Gehsteig", "GS_P_INT": 0, "GS_P_TEXT": "nein", "GS_GV_INT": 0, "GS_GV_TEXT": "nein", "GS_AK_INT": 0, "GS_AK_TEXT": "nein", "LINK": "http:\/\/www.umwelt.graz.at\/cms\/ziel\/4927353\/DE\/" }, "geometry": { "type": "Point", "coordinates": [ 15.461383691580735, 47.077823161637951 ] } },
{ "type": "Feature", "properties": { "OBJECTID": 4139, "SAMMELSTELLENNAME": "Marschallgasse 12", "STRASSENNAME": "Marschallgasse", "HAUSNUMMER": "12", "BEZIRKS_NR": 4, "BEZIRKSNAME": "Lend", "LAGE": "Ecke Orpheumgasse, gegenüber der Plakatwand", "GS_P_INT": 1, "GS_P_TEXT": "ja", "GS_GV_INT": 0, "GS_GV_TEXT": "nein", "GS_AK_INT": 0, "GS_AK_TEXT": "nein", "LINK": "http:\/\/www.umwelt.graz.at\/cms\/ziel\/4927353\/DE\/" }, "geometry": { "type": "Point", "coordinates": [ 15.431123666703503, 47.072123565769985 ] } },
{ "type": "Feature", "properties": { "OBJECTID": 4140, "SAMMELSTELLENNAME": "Pfanghofweg 66", "STRASSENNAME": "Pfanghofweg", "HAUSNUMMER": "66", "BEZIRKS_NR": 12, "BEZIRKSNAME": "Andritz", "LAGE": "Straßenrand", "GS_P_INT": 0, "GS_P_TEXT": "nein", "GS_GV_INT": 1, "GS_GV_TEXT": "ja", "GS_AK_INT": 0, "GS_AK_TEXT": "nein", "LINK": "http:\/\/www.umwelt.graz.at\/cms\/ziel\/4927353\/DE\/" }, "geometry": { "type": "Point", "coordinates": [ 15.442309995441708, 47.11722465407626 ] } },
{ "type": "Feature", "properties": { "OBJECTID": 4141, "SAMMELSTELLENNAME": "Ragnitztalweg 16", "STRASSENNAME": "Ragnitztalweg", "HAUSNUMMER": "16", "BEZIRKS_NR": 9, "BEZIRKSNAME": "Waltendorf", "LAGE": "Ecke Sorgerweg", "GS_P_INT": 0, "GS_P_TEXT": "nein", "GS_GV_INT": 0, "GS_GV_TEXT": "nein", "GS_AK_INT": 0, "GS_AK_TEXT": "nein", "LINK": "http:\/\/www.umwelt.graz.at\/cms\/ziel\/4927353\/DE\/" }, "geometry": { "type": "Point", "coordinates": [ 15.50053877008768, 47.073364950816604 ] } },
{ "type": "Feature", "properties": { "OBJECTID": 4012, "SAMMELSTELLENNAME": "Alberstraße 13", "STRASSENNAME": "Alberstraße", "HAUSNUMMER": "13", "BEZIRKS_NR": 2, "BEZIRKSNAME": "St. Leonhard", "LAGE": "Ecke Lessingstraße", "GS_P_INT": 1, "GS_P_TEXT": "ja", "GS_GV_INT": 0, "GS_GV_TEXT": "nein", "GS_AK_INT": 0, "GS_AK_TEXT": "nein", "LINK": "http:\/\/www.umwelt.graz.at\/cms\/ziel\/4927353\/DE\/" }, "geometry": { "type": "Point", "coordinates": [ 15.450150793725658, 47.070548892343815 ] } },
{ "type": "Feature", "properties": { "OBJECTID": 4013, "SAMMELSTELLENNAME": "Am Dominikanergrund 20", "STRASSENNAME": "Am Dominikanergrund", "HAUSNUMMER": "20", "BEZIRKS_NR": 11, "BEZIRKSNAME": "Mariatrost", "LAGE": "gegenüber", "GS_P_INT": 0, "GS_P_TEXT": "nein", "GS_GV_INT": 1, "GS_GV_TEXT": "ja", "GS_AK_INT": 0, "GS_AK_TEXT": "nein", "LINK": "http:\/\/www.umwelt.graz.at\/cms\/ziel\/4927353\/DE\/" }, "geometry": { "type": "Point", "coordinates": [ 15.464221976773574, 47.089237086807145 ] } },
{ "type": "Feature", "properties": { "OBJECTID": 4014, "SAMMELSTELLENNAME": "Bergmanngasse 28", "STRASSENNAME": "Bergmanngasse", "HAUSNUMMER": "28", "BEZIRKS_NR": 3, "BEZIRKSNAME": "Geidorf", "LAGE": "Schröttergasse", "GS_P_INT": 0, "GS_P_TEXT": "nein", "GS_GV_INT": 0, "GS_GV_TEXT": "nein", "GS_AK_INT": 0, "GS_AK_TEXT": "nein", "LINK": "http:\/\/www.umwelt.graz.at\/cms\/ziel\/4927353\/DE\/" }, "geometry": { "type": "Point", "coordinates": [ 15.440723920782132, 47.081561921767332 ] } },
{ "type": "Feature", "properties": { "OBJECTID": 4015, "SAMMELSTELLENNAME": "Buchkogelgasse 24", "STRASSENNAME": "Buchkogelgasse", "HAUSNUMMER": "24", "BEZIRKS_NR": 5, "BEZIRKSNAME": "Gries", "LAGE": "Ecke Falkenhofgasse", "GS_P_INT": 0, "GS_P_TEXT": "nein", "GS_GV_INT": 1, "GS_GV_TEXT": "ja", "GS_AK_INT": 0, "GS_AK_TEXT": "nein", "LINK": "http:\/\/www.umwelt.graz.at\/cms\/ziel\/4927353\/DE\/" }, "geometry": { "type": "Point", "coordinates": [ 15.424291196440347, 47.056336928167902 ] } },
{ "type": "Feature", "properties": { "OBJECTID": 4016, "SAMMELSTELLENNAME": "Conrad-von-Hötzendorf-Straße 23", "STRASSENNAME": "Conrad-von-Hötzendorf-Straße", "HAUSNUMMER": "23", "BEZIRKS_NR": 6, "BEZIRKSNAME": "Jakomini", "LAGE": "Brockmanngasse", "GS_P_INT": 0, "GS_P_TEXT": "nein", "GS_GV_INT": 1, "GS_GV_TEXT": "ja", "GS_AK_INT": 0, "GS_AK_TEXT": "nein", "LINK": "http:\/\/www.umwelt.graz.at\/cms\/ziel\/4927353\/DE\/" }, "geometry": { "type": "Point", "coordinates": [ 15.443911582517986, 47.062281290677824 ] } },
{ "type": "Feature", "properties": { "OBJECTID": 4017, "SAMMELSTELLENNAME": "Engelgasse 56", "STRASSENNAME": "Engelgasse", "HAUSNUMMER": "56", "BEZIRKS_NR": 2, "BEZIRKSNAME": "St. Leonhard", "LAGE": "daneben", "GS_P_INT": 1, "GS_P_TEXT": "ja", "GS_GV_INT": 0, "GS_GV_TEXT": "nein", "GS_AK_INT": 0, "GS_AK_TEXT": "nein", "LINK": "http:\/\/www.umwelt.graz.at\/cms\/ziel\/4927353\/DE\/" }, "geometry": { "type": "Point", "coordinates": [ 15.458396502111698, 47.071473489802095 ] } },
{ "type": "Feature", "properties": { "OBJECTID": 4018, "SAMMELSTELLENNAME": "Föllinger Straße 11b", "STRASSENNAME": "Föllinger Straße", "HAUSNUMMER": "11b", "BEZIRKS_NR": 11, "BEZIRKSNAME": "Mariatrost", "LAGE": null, "GS_P_INT": 0, "GS_P_TEXT": "nein", "GS_GV_INT": 1, "GS_GV_TEXT": "ja", "GS_AK_INT": 0, "GS_AK_TEXT": "nein", "LINK": "http:\/\/www.umwelt.graz.at\/cms\/ziel\/4927353\/DE\/" }, "geometry": { "type": "Point", "coordinates": [ 15.495645561105912, 47.112277070832604 ] } },
{ "type": "Feature", "properties": { "OBJECTID": 4019, "SAMMELSTELLENNAME": "Hartenaugasse 24", "STRASSENNAME": "Hartenaugasse", "HAUSNUMMER": "24", "BEZIRKS_NR": 3, "BEZIRKSNAME": "Geidorf", "LAGE": "gegenüber", "GS_P_INT": 1, "GS_P_TEXT": "ja", "GS_GV_INT": 0, "GS_GV_TEXT": "nein", "GS_AK_INT": 0, "GS_AK_TEXT": "nein", "LINK": "http:\/\/www.umwelt.graz.at\/cms\/ziel\/4927353\/DE\/" }, "geometry": { "type": "Point", "coordinates": [ 15.457714673021931, 47.076809610618923 ] } },
{ "type": "Feature", "properties": { "OBJECTID": 4021, "SAMMELSTELLENNAME": "Kärntner Straße 157", "STRASSENNAME": "Kärntner Straße", "HAUSNUMMER": "157", "BEZIRKS_NR": 16, "BEZIRKSNAME": "Straßgang", "LAGE": "Bäckerweg", "GS_P_INT": 0, "GS_P_TEXT": "nein", "GS_GV_INT": 1, "GS_GV_TEXT": "ja", "GS_AK_INT": 0, "GS_AK_TEXT": "nein", "LINK": "http:\/\/www.umwelt.graz.at\/cms\/ziel\/4927353\/DE\/" }, "geometry": { "type": "Point", "coordinates": [ 15.415564703062511, 47.046846673920228 ] } },
{ "type": "Feature", "properties": { "OBJECTID": 4022, "SAMMELSTELLENNAME": "Kärntner Straße 167", "STRASSENNAME": "Kärntner Straße", "HAUSNUMMER": "167", "BEZIRKS_NR": 16, "BEZIRKSNAME": "Straßgang", "LAGE": "Riemerweg (bei der Fa. Lassacher)", "GS_P_INT": 0, "GS_P_TEXT": "nein", "GS_GV_INT": 1, "GS_GV_TEXT": "ja", "GS_AK_INT": 0, "GS_AK_TEXT": "nein", "LINK": "http:\/\/www.umwelt.graz.at\/cms\/ziel\/4927353\/DE\/" }, "geometry": { "type": "Point", "coordinates": [ 15.41489251572032, 47.045378948003211 ] } },
{ "type": "Feature", "properties": { "OBJECTID": 4023, "SAMMELSTELLENNAME": "Kärntner Straße 353", "STRASSENNAME": "Kärntner Straße", "HAUSNUMMER": "353", "BEZIRKS_NR": 16, "BEZIRKSNAME": "Straßgang", "LAGE": "Kainbacherweg", "GS_P_INT": 0, "GS_P_TEXT": "nein", "GS_GV_INT": 1, "GS_GV_TEXT": "ja", "GS_AK_INT": 0, "GS_AK_TEXT": "nein", "LINK": "http:\/\/www.umwelt.graz.at\/cms\/ziel\/4927353\/DE\/" }, "geometry": { "type": "Point", "coordinates": [ 15.401925360587324, 47.028174951020567 ] } },
{ "type": "Feature", "properties": { "OBJECTID": 4024, "SAMMELSTELLENNAME": "Kärntner Straße 391", "STRASSENNAME": "Kärntner Straße", "HAUSNUMMER": "391", "BEZIRKS_NR": 16, "BEZIRKSNAME": "Straßgang", "LAGE": "Hafnerstraße", "GS_P_INT": 0, "GS_P_TEXT": "nein", "GS_GV_INT": 1, "GS_GV_TEXT": "ja", "GS_AK_INT": 0, "GS_AK_TEXT": "nein", "LINK": "http:\/\/www.umwelt.graz.at\/cms\/ziel\/4927353\/DE\/" }, "geometry": { "type": "Point", "coordinates": [ 15.401008364557413, 47.025185887429657 ] } },
{ "type": "Feature", "properties": { "OBJECTID": 4025, "SAMMELSTELLENNAME": "Krottendorfer Straße 50", "STRASSENNAME": "Krottendorfer Straße", "HAUSNUMMER": "50", "BEZIRKS_NR": 15, "BEZIRKSNAME": "Wetzelsdorf", "LAGE": null, "GS_P_INT": 0, "GS_P_TEXT": "nein", "GS_GV_INT": 1, "GS_GV_TEXT": "ja", "GS_AK_INT": 0, "GS_AK_TEXT": "nein", "LINK": "http:\/\/www.umwelt.graz.at\/cms\/ziel\/4927353\/DE\/" }, "geometry": { "type": "Point", "coordinates": [ 15.39265645165108, 47.051525920971052 ] } },
{ "type": "Feature", "properties": { "OBJECTID": 4020, "SAMMELSTELLENNAME": "Josef-Pongratz-Platz 1", "STRASSENNAME": "Josef-Pongratz-Platz", "HAUSNUMMER": "1", "BEZIRKS_NR": 6, "BEZIRKSNAME": "Jakomini", "LAGE": "bei der GKK Bushaltestelle", "GS_P_INT": 1, "GS_P_TEXT": "ja", "GS_GV_INT": 1, "GS_GV_TEXT": "ja", "GS_AK_INT": 0, "GS_AK_TEXT": "nein", "LINK": "http:\/\/www.umwelt.graz.at\/cms\/ziel\/4927353\/DE\/" }, "geometry": { "type": "Point", "coordinates": [ 15.435760053409419, 47.065394359713629 ] } },
{ "type": "Feature", "properties": { "OBJECTID": 4026, "SAMMELSTELLENNAME": "Neubaugasse 60", "STRASSENNAME": "Neubaugasse", "HAUSNUMMER": "60", "BEZIRKS_NR": 4, "BEZIRKSNAME": "Lend", "LAGE": "Ecke Pflanzengasse, am Gehsteig", "GS_P_INT": 1, "GS_P_TEXT": "ja", "GS_GV_INT": 0, "GS_GV_TEXT": "nein", "GS_AK_INT": 0, "GS_AK_TEXT": "nein", "LINK": "http:\/\/www.umwelt.graz.at\/cms\/ziel\/4927353\/DE\/" }, "geometry": { "type": "Point", "coordinates": [ 15.42923134188946, 47.079315366521136 ] } },
{ "type": "Feature", "properties": { "OBJECTID": 4027, "SAMMELSTELLENNAME": "Obere Teichstraße 81", "STRASSENNAME": "Obere Teichstraße", "HAUSNUMMER": "81", "BEZIRKS_NR": 9, "BEZIRKSNAME": "Waltendorf", "LAGE": "gegenüber", "GS_P_INT": 0, "GS_P_TEXT": "nein", "GS_GV_INT": 0, "GS_GV_TEXT": "nein", "GS_AK_INT": 0, "GS_AK_TEXT": "nein", "LINK": "http:\/\/www.umwelt.graz.at\/cms\/ziel\/4927353\/DE\/" }, "geometry": { "type": "Point", "coordinates": [ 15.478037788931204, 47.070661738984825 ] } },
{ "type": "Feature", "properties": { "OBJECTID": 4029, "SAMMELSTELLENNAME": "Radegunder Straße 25", "STRASSENNAME": "Radegunder Straße", "HAUSNUMMER": "25", "BEZIRKS_NR": 12, "BEZIRKSNAME": "Andritz", "LAGE": "Ecke Hans-von-der-Sann-Gasse", "GS_P_INT": 0, "GS_P_TEXT": "nein", "GS_GV_INT": 1, "GS_GV_TEXT": "ja", "GS_AK_INT": 0, "GS_AK_TEXT": "nein", "LINK": "http:\/\/www.umwelt.graz.at\/cms\/ziel\/4927353\/DE\/" }, "geometry": { "type": "Point", "coordinates": [ 15.427052241584533, 47.107080321506594 ] } },
{ "type": "Feature", "properties": { "OBJECTID": 4030, "SAMMELSTELLENNAME": "Wartingergasse 7", "STRASSENNAME": "Wartingergasse", "HAUSNUMMER": "7", "BEZIRKS_NR": 3, "BEZIRKSNAME": "Geidorf", "LAGE": "gegenüber", "GS_P_INT": 0, "GS_P_TEXT": "nein", "GS_GV_INT": 0, "GS_GV_TEXT": "nein", "GS_AK_INT": 0, "GS_AK_TEXT": "nein", "LINK": "http:\/\/www.umwelt.graz.at\/cms\/ziel\/4927353\/DE\/" }, "geometry": { "type": "Point", "coordinates": [ 15.438091730104052, 47.080055736281068 ] } },
{ "type": "Feature", "properties": { "OBJECTID": 4031, "SAMMELSTELLENNAME": "Schörgelgasse 55", "STRASSENNAME": "Schörgelgasse", "HAUSNUMMER": "55", "BEZIRKS_NR": 2, "BEZIRKSNAME": "St. Leonhard", "LAGE": "gegenüber", "GS_P_INT": 1, "GS_P_TEXT": "ja", "GS_GV_INT": 0, "GS_GV_TEXT": "nein", "GS_AK_INT": 0, "GS_AK_TEXT": "nein", "LINK": "http:\/\/www.umwelt.graz.at\/cms\/ziel\/4927353\/DE\/" }, "geometry": { "type": "Point", "coordinates": [ 15.455090351565092, 47.066293913857734 ] } },
{ "type": "Feature", "properties": { "OBJECTID": 4032, "SAMMELSTELLENNAME": "Sparbersbachgasse 52", "STRASSENNAME": "Sparbersbachgasse", "HAUSNUMMER": "52", "BEZIRKS_NR": 2, "BEZIRKSNAME": "St. Leonhard", "LAGE": "Ecke Katzianergasse", "GS_P_INT": 0, "GS_P_TEXT": "nein", "GS_GV_INT": 1, "GS_GV_TEXT": "ja", "GS_AK_INT": 0, "GS_AK_TEXT": "nein", "LINK": "http:\/\/www.umwelt.graz.at\/cms\/ziel\/4927353\/DE\/" }, "geometry": { "type": "Point", "coordinates": [ 15.453791012774452, 47.069236999131896 ] } },
{ "type": "Feature", "properties": { "OBJECTID": 4033, "SAMMELSTELLENNAME": "Petersbergenstraße 114", "STRASSENNAME": "Petersbergenstraße", "HAUSNUMMER": "114", "BEZIRKS_NR": 8, "BEZIRKSNAME": "St. Peter", "LAGE": "Pachernweg", "GS_P_INT": 0, "GS_P_TEXT": "nein", "GS_GV_INT": 1, "GS_GV_TEXT": "ja", "GS_AK_INT": 0, "GS_AK_TEXT": "nein", "LINK": "http:\/\/www.umwelt.graz.at\/cms\/ziel\/4927353\/DE\/" }, "geometry": { "type": "Point", "coordinates": [ 15.496229228517672, 47.05467635817746 ] } },
{ "type": "Feature", "properties": { "OBJECTID": 4034, "SAMMELSTELLENNAME": "Paulinerweg 1", "STRASSENNAME": "Paulinerweg", "HAUSNUMMER": "1", "BEZIRKS_NR": 11, "BEZIRKSNAME": "Mariatrost", "LAGE": "Ecke Mariatrosterstraße", "GS_P_INT": 0, "GS_P_TEXT": "nein", "GS_GV_INT": 0, "GS_GV_TEXT": "nein", "GS_AK_INT": 0, "GS_AK_TEXT": "nein", "LINK": "http:\/\/www.umwelt.graz.at\/cms\/ziel\/4927353\/DE\/" }, "geometry": { "type": "Point", "coordinates": [ 15.503563980015585, 47.116728069463555 ] } },
{ "type": "Feature", "properties": { "OBJECTID": 4035, "SAMMELSTELLENNAME": "Heinrichstraße 63", "STRASSENNAME": "Heinrichstraße", "HAUSNUMMER": "63", "BEZIRKS_NR": 3, "BEZIRKSNAME": "Geidorf", "LAGE": null, "GS_P_INT": 1, "GS_P_TEXT": "ja", "GS_GV_INT": 0, "GS_GV_TEXT": "nein", "GS_AK_INT": 0, "GS_AK_TEXT": "nein", "LINK": "http:\/\/www.umwelt.graz.at\/cms\/ziel\/4927353\/DE\/" }, "geometry": { "type": "Point", "coordinates": [ 15.45181727521809, 47.081086288805587 ] } },
{ "type": "Feature", "properties": { "OBJECTID": 4036, "SAMMELSTELLENNAME": "Theodor-Körner-Straße 123", "STRASSENNAME": "Theodor-Körner-Straße", "HAUSNUMMER": "123", "BEZIRKS_NR": 3, "BEZIRKSNAME": "Geidorf", "LAGE": "Ecke Lehargasse, König Brot", "GS_P_INT": 1, "GS_P_TEXT": "ja", "GS_GV_INT": 0, "GS_GV_TEXT": "nein", "GS_AK_INT": 0, "GS_AK_TEXT": "nein", "LINK": "http:\/\/www.umwelt.graz.at\/cms\/ziel\/4927353\/DE\/" }, "geometry": { "type": "Point", "coordinates": [ 15.428368018315444, 47.088890889776096 ] } },
{ "type": "Feature", "properties": { "OBJECTID": 4028, "SAMMELSTELLENNAME": "Radegunder Straße 10", "STRASSENNAME": "Radegunder Straße", "HAUSNUMMER": "10", "BEZIRKS_NR": 12, "BEZIRKSNAME": "Andritz", "LAGE": "Ecke Nordberggasse,  SPAR", "GS_P_INT": 0, "GS_P_TEXT": "nein", "GS_GV_INT": 1, "GS_GV_TEXT": "ja", "GS_AK_INT": 0, "GS_AK_TEXT": "nein", "LINK": "http:\/\/www.umwelt.graz.at\/cms\/ziel\/4927353\/DE\/" }, "geometry": { "type": "Point", "coordinates": [ 15.426443629514724, 47.103311692083075 ] } },
{ "type": "Feature", "properties": { "OBJECTID": 4038, "SAMMELSTELLENNAME": "Baumkircherstraße 5", "STRASSENNAME": "Baumkircherstraße", "HAUSNUMMER": "5", "BEZIRKS_NR": 4, "BEZIRKSNAME": "Lend", "LAGE": null, "GS_P_INT": 1, "GS_P_TEXT": "ja", "GS_GV_INT": 0, "GS_GV_TEXT": "nein", "GS_AK_INT": 0, "GS_AK_TEXT": "nein", "LINK": "http:\/\/www.umwelt.graz.at\/cms\/ziel\/4927353\/DE\/" }, "geometry": { "type": "Point", "coordinates": [ 15.420108174930194, 47.072440309899733 ] } },
{ "type": "Feature", "properties": { "OBJECTID": 4039, "SAMMELSTELLENNAME": "Überfuhrgasse 6", "STRASSENNAME": "Überfuhrgasse", "HAUSNUMMER": "6", "BEZIRKS_NR": 4, "BEZIRKSNAME": "Lend", "LAGE": "Schleifbachgasse 5", "GS_P_INT": 1, "GS_P_TEXT": "ja", "GS_GV_INT": 1, "GS_GV_TEXT": "ja", "GS_AK_INT": 0, "GS_AK_TEXT": "nein", "LINK": "http:\/\/www.umwelt.graz.at\/cms\/ziel\/4927353\/DE\/" }, "geometry": { "type": "Point", "coordinates": [ 15.420645702142531, 47.087347129768304 ] } },
{ "type": "Feature", "properties": { "OBJECTID": 4040, "SAMMELSTELLENNAME": "Falkenhofgasse 20", "STRASSENNAME": "Falkenhofgasse", "HAUSNUMMER": "20", "BEZIRKS_NR": 5, "BEZIRKSNAME": "Gries", "LAGE": "gegenüber, Gehsteig", "GS_P_INT": 1, "GS_P_TEXT": "ja", "GS_GV_INT": 0, "GS_GV_TEXT": "nein", "GS_AK_INT": 0, "GS_AK_TEXT": "nein", "LINK": "http:\/\/www.umwelt.graz.at\/cms\/ziel\/4927353\/DE\/" }, "geometry": { "type": "Point", "coordinates": [ 15.42671865569919, 47.056733215424686 ] } },
{ "type": "Feature", "properties": { "OBJECTID": 4041, "SAMMELSTELLENNAME": "Vinzenz-Muchitsch-Straße 2", "STRASSENNAME": "Vinzenz-Muchitsch-Straße", "HAUSNUMMER": "2", "BEZIRKS_NR": 5, "BEZIRKSNAME": "Gries", "LAGE": null, "GS_P_INT": 1, "GS_P_TEXT": "ja", "GS_GV_INT": 0, "GS_GV_TEXT": "nein", "GS_AK_INT": 0, "GS_AK_TEXT": "nein", "LINK": "http:\/\/www.umwelt.graz.at\/cms\/ziel\/4927353\/DE\/" }, "geometry": { "type": "Point", "coordinates": [ 15.427263946717284, 47.05459661679901 ] } },
{ "type": "Feature", "properties": { "OBJECTID": 4042, "SAMMELSTELLENNAME": "Wickenburggasse 34", "STRASSENNAME": "Wickenburggasse", "HAUSNUMMER": "34", "BEZIRKS_NR": 3, "BEZIRKSNAME": "Geidorf", "LAGE": "am Gehsteig", "GS_P_INT": 1, "GS_P_TEXT": "ja", "GS_GV_INT": 0, "GS_GV_TEXT": "nein", "GS_AK_INT": 0, "GS_AK_TEXT": "nein", "LINK": "http:\/\/www.umwelt.graz.at\/cms\/ziel\/4927353\/DE\/" }, "geometry": { "type": "Point", "coordinates": [ 15.435318558429756, 47.078236057269223 ] } },
{ "type": "Feature", "properties": { "OBJECTID": 4043, "SAMMELSTELLENNAME": "Floßlendplatz 3", "STRASSENNAME": "Floßlendplatz", "HAUSNUMMER": "3", "BEZIRKS_NR": 4, "BEZIRKSNAME": "Lend", "LAGE": "Zeillergasse, bei der Brücke", "GS_P_INT": 0, "GS_P_TEXT": "nein", "GS_GV_INT": 1, "GS_GV_TEXT": "ja", "GS_AK_INT": 1, "GS_AK_TEXT": "ja", "LINK": "http:\/\/www.umwelt.graz.at\/cms\/ziel\/4927353\/DE\/" }, "geometry": { "type": "Point", "coordinates": [ 15.425328285205854, 47.083332808359799 ] } },
{ "type": "Feature", "properties": { "OBJECTID": 4044, "SAMMELSTELLENNAME": "Lazarettgasse 18", "STRASSENNAME": "Lazarettgasse", "HAUSNUMMER": "18", "BEZIRKS_NR": 5, "BEZIRKSNAME": "Gries", "LAGE": "Kindermanngasse", "GS_P_INT": 0, "GS_P_TEXT": "nein", "GS_GV_INT": 1, "GS_GV_TEXT": "ja", "GS_AK_INT": 0, "GS_AK_TEXT": "nein", "LINK": "http:\/\/www.umwelt.graz.at\/cms\/ziel\/4927353\/DE\/" }, "geometry": { "type": "Point", "coordinates": [ 15.425350374700287, 47.064875530679885 ] } },
{ "type": "Feature", "properties": { "OBJECTID": 4045, "SAMMELSTELLENNAME": "Sanzingasse 5", "STRASSENNAME": "Sanzingasse", "HAUSNUMMER": "5", "BEZIRKS_NR": 12, "BEZIRKSNAME": "Andritz", "LAGE": "Föderlgasse", "GS_P_INT": 0, "GS_P_TEXT": "nein", "GS_GV_INT": 1, "GS_GV_TEXT": "ja", "GS_AK_INT": 0, "GS_AK_TEXT": "nein", "LINK": "http:\/\/www.umwelt.graz.at\/cms\/ziel\/4927353\/DE\/" }, "geometry": { "type": "Point", "coordinates": [ 15.417866392589589, 47.106343834787403 ] } },
{ "type": "Feature", "properties": { "OBJECTID": 4037, "SAMMELSTELLENNAME": "Theodor-Körner-Straße 60", "STRASSENNAME": "Theodor-Körner-Straße", "HAUSNUMMER": "60", "BEZIRKS_NR": 3, "BEZIRKSNAME": "Geidorf", "LAGE": "Sammelstelle zwischen 60 und 62", "GS_P_INT": 1, "GS_P_TEXT": "ja", "GS_GV_INT": 1, "GS_GV_TEXT": "ja", "GS_AK_INT": 0, "GS_AK_TEXT": "nein", "LINK": "http:\/\/www.umwelt.graz.at\/cms\/ziel\/4927353\/DE\/" }, "geometry": { "type": "Point", "coordinates": [ 15.431623762833839, 47.084832889252993 ] } },
{ "type": "Feature", "properties": { "OBJECTID": 4047, "SAMMELSTELLENNAME": "Fischeraustraße 55", "STRASSENNAME": "Fischeraustraße", "HAUSNUMMER": "55", "BEZIRKS_NR": 13, "BEZIRKSNAME": "Gösting", "LAGE": null, "GS_P_INT": 0, "GS_P_TEXT": "nein", "GS_GV_INT": 1, "GS_GV_TEXT": "ja", "GS_AK_INT": 0, "GS_AK_TEXT": "nein", "LINK": "http:\/\/www.umwelt.graz.at\/cms\/ziel\/4927353\/DE\/" }, "geometry": { "type": "Point", "coordinates": [ 15.406392214080203, 47.098674371824352 ] } },
{ "type": "Feature", "properties": { "OBJECTID": 4048, "SAMMELSTELLENNAME": "Göstinger Straße 221", "STRASSENNAME": "Göstinger Straße", "HAUSNUMMER": "221", "BEZIRKS_NR": 13, "BEZIRKSNAME": "Gösting", "LAGE": "Fürstenstandweg", "GS_P_INT": 0, "GS_P_TEXT": "nein", "GS_GV_INT": 1, "GS_GV_TEXT": "ja", "GS_AK_INT": 0, "GS_AK_TEXT": "nein", "LINK": "http:\/\/www.umwelt.graz.at\/cms\/ziel\/4927353\/DE\/" }, "geometry": { "type": "Point", "coordinates": [ 15.393125049534433, 47.098273557837125 ] } },
{ "type": "Feature", "properties": { "OBJECTID": 4049, "SAMMELSTELLENNAME": "Wiener Straße 341", "STRASSENNAME": "Wiener Straße", "HAUSNUMMER": "341", "BEZIRKS_NR": 13, "BEZIRKSNAME": "Gösting", "LAGE": "hinter der OMV Tankstelle", "GS_P_INT": 0, "GS_P_TEXT": "nein", "GS_GV_INT": 1, "GS_GV_TEXT": "ja", "GS_AK_INT": 0, "GS_AK_TEXT": "nein", "LINK": "http:\/\/www.umwelt.graz.at\/cms\/ziel\/4927353\/DE\/" }, "geometry": { "type": "Point", "coordinates": [ 15.401693423319616, 47.103387314257496 ] } },
{ "type": "Feature", "properties": { "OBJECTID": 4050, "SAMMELSTELLENNAME": "Burgenlandstraße 2", "STRASSENNAME": "Burgenlandstraße", "HAUSNUMMER": "2", "BEZIRKS_NR": 14, "BEZIRKSNAME": "Eggenberg", "LAGE": "Straßganger Straße", "GS_P_INT": 0, "GS_P_TEXT": "nein", "GS_GV_INT": 1, "GS_GV_TEXT": "ja", "GS_AK_INT": 0, "GS_AK_TEXT": "nein", "LINK": "http:\/\/www.umwelt.graz.at\/cms\/ziel\/4927353\/DE\/" }, "geometry": { "type": "Point", "coordinates": [ 15.395771221924313, 47.060598706367017 ] } },
{ "type": "Feature", "properties": { "OBJECTID": 4051, "SAMMELSTELLENNAME": "Köflacher Gasse 35", "STRASSENNAME": "Köflacher Gasse", "HAUSNUMMER": "35", "BEZIRKS_NR": 5, "BEZIRKSNAME": "Gries", "LAGE": "Köflacher Bahnhof", "GS_P_INT": 0, "GS_P_TEXT": "nein", "GS_GV_INT": 1, "GS_GV_TEXT": "ja", "GS_AK_INT": 0, "GS_AK_TEXT": "nein", "LINK": "http:\/\/www.umwelt.graz.at\/cms\/ziel\/4927353\/DE\/" }, "geometry": { "type": "Point", "coordinates": [ 15.413559560922469, 47.068302168778708 ] } },
{ "type": "Feature", "properties": { "OBJECTID": 4052, "SAMMELSTELLENNAME": "Rudersdorfer Straße 119", "STRASSENNAME": "Rudersdorfer Straße", "HAUSNUMMER": "119", "BEZIRKS_NR": 17, "BEZIRKSNAME": "Puntigam", "LAGE": "Ecke Mitterlingweg", "GS_P_INT": 0, "GS_P_TEXT": "nein", "GS_GV_INT": 0, "GS_GV_TEXT": "nein", "GS_AK_INT": 0, "GS_AK_TEXT": "nein", "LINK": "http:\/\/www.umwelt.graz.at\/cms\/ziel\/4927353\/DE\/" }, "geometry": { "type": "Point", "coordinates": [ 15.443799665443303, 47.020491169357555 ] } },
{ "type": "Feature", "properties": { "OBJECTID": 4053, "SAMMELSTELLENNAME": "Seidenhofstraße 33", "STRASSENNAME": "Seidenhofstraße", "HAUSNUMMER": "33", "BEZIRKS_NR": 14, "BEZIRKSNAME": "Eggenberg", "LAGE": "gegenüber", "GS_P_INT": 0, "GS_P_TEXT": "nein", "GS_GV_INT": 0, "GS_GV_TEXT": "nein", "GS_AK_INT": 0, "GS_AK_TEXT": "nein", "LINK": "http:\/\/www.umwelt.graz.at\/cms\/ziel\/4927353\/DE\/" }, "geometry": { "type": "Point", "coordinates": [ 15.402612829561601, 47.066227965928817 ] } },
{ "type": "Feature", "properties": { "OBJECTID": 4054, "SAMMELSTELLENNAME": "Feldkirchner Weg 37", "STRASSENNAME": "Feldkirchner Weg", "HAUSNUMMER": "37", "BEZIRKS_NR": 17, "BEZIRKSNAME": "Puntigam", "LAGE": "gegenüber", "GS_P_INT": 0, "GS_P_TEXT": "nein", "GS_GV_INT": 1, "GS_GV_TEXT": "ja", "GS_AK_INT": 0, "GS_AK_TEXT": "nein", "LINK": "http:\/\/www.umwelt.graz.at\/cms\/ziel\/4927353\/DE\/" }, "geometry": { "type": "Point", "coordinates": [ 15.437186028724364, 47.023940784007294 ] } },
{ "type": "Feature", "properties": { "OBJECTID": 4046, "SAMMELSTELLENNAME": "Ulrichsweg 43", "STRASSENNAME": "Ulrichsweg", "HAUSNUMMER": "43", "BEZIRKS_NR": 12, "BEZIRKSNAME": "Andritz", "LAGE": null, "GS_P_INT": 0, "GS_P_TEXT": "nein", "GS_GV_INT": 1, "GS_GV_TEXT": "ja", "GS_AK_INT": 0, "GS_AK_TEXT": "nein", "LINK": "http:\/\/www.umwelt.graz.at\/cms\/ziel\/4927353\/DE\/" }, "geometry": { "type": "Point", "coordinates": [ 15.430701701862978, 47.098327190831576 ] } },
{ "type": "Feature", "properties": { "OBJECTID": 4056, "SAMMELSTELLENNAME": "Messendorfer Straße 6", "STRASSENNAME": "Messendorfer Straße", "HAUSNUMMER": "6", "BEZIRKS_NR": 7, "BEZIRKSNAME": "Liebenau", "LAGE": "gegenüber", "GS_P_INT": 0, "GS_P_TEXT": "nein", "GS_GV_INT": 1, "GS_GV_TEXT": "ja", "GS_AK_INT": 0, "GS_AK_TEXT": "nein", "LINK": "http:\/\/www.umwelt.graz.at\/cms\/ziel\/4927353\/DE\/" }, "geometry": { "type": "Point", "coordinates": [ 15.463486099766017, 47.036731164413645 ] } },
{ "type": "Feature", "properties": { "OBJECTID": 4057, "SAMMELSTELLENNAME": "Wiesengasse 19", "STRASSENNAME": "Wiesengasse", "HAUSNUMMER": "19", "BEZIRKS_NR": 5, "BEZIRKSNAME": "Gries", "LAGE": "Gehsteig", "GS_P_INT": 1, "GS_P_TEXT": "ja", "GS_GV_INT": 0, "GS_GV_TEXT": "nein", "GS_AK_INT": 0, "GS_AK_TEXT": "nein", "LINK": "http:\/\/www.umwelt.graz.at\/cms\/ziel\/4927353\/DE\/" }, "geometry": { "type": "Point", "coordinates": [ 15.425614709888846, 47.057508189154007 ] } },
{ "type": "Feature", "properties": { "OBJECTID": 4058, "SAMMELSTELLENNAME": "Conrad-von-Hötzendorf-Straße 36", "STRASSENNAME": "Conrad-von-Hötzendorf-Straße", "HAUSNUMMER": "36", "BEZIRKS_NR": 6, "BEZIRKSNAME": "Jakomini", "LAGE": "Stand", "GS_P_INT": 1, "GS_P_TEXT": "ja", "GS_GV_INT": 0, "GS_GV_TEXT": "nein", "GS_AK_INT": 0, "GS_AK_TEXT": "nein", "LINK": "http:\/\/www.umwelt.graz.at\/cms\/ziel\/4927353\/DE\/" }, "geometry": { "type": "Point", "coordinates": [ 15.444470078719561, 47.060501623543608 ] } },
{ "type": "Feature", "properties": { "OBJECTID": 4059, "SAMMELSTELLENNAME": "Waagner-Biro-Straße 72", "STRASSENNAME": "Waagner-Biro-Straße", "HAUSNUMMER": "72", "BEZIRKS_NR": 4, "BEZIRKSNAME": "Lend", "LAGE": "gegenüber am Straßenrand, Hausnr. 72 - 76", "GS_P_INT": 0, "GS_P_TEXT": "nein", "GS_GV_INT": 1, "GS_GV_TEXT": "ja", "GS_AK_INT": 1, "GS_AK_TEXT": "ja", "LINK": "http:\/\/www.umwelt.graz.at\/cms\/ziel\/4927353\/DE\/" }, "geometry": { "type": "Point", "coordinates": [ 15.412295772416252, 47.077618850425949 ] } },
{ "type": "Feature", "properties": { "OBJECTID": 4060, "SAMMELSTELLENNAME": "Bachweg 14", "STRASSENNAME": "Bachweg", "HAUSNUMMER": "14", "BEZIRKS_NR": 8, "BEZIRKSNAME": "St. Peter", "LAGE": null, "GS_P_INT": 0, "GS_P_TEXT": "nein", "GS_GV_INT": 1, "GS_GV_TEXT": "ja", "GS_AK_INT": 0, "GS_AK_TEXT": "nein", "LINK": "http:\/\/www.umwelt.graz.at\/cms\/ziel\/4927353\/DE\/" }, "geometry": { "type": "Point", "coordinates": [ 15.487069476252511, 47.063552113644818 ] } },
{ "type": "Feature", "properties": { "OBJECTID": 4061, "SAMMELSTELLENNAME": "Raiffeisenstraße 188", "STRASSENNAME": "Raiffeisenstraße", "HAUSNUMMER": "188", "BEZIRKS_NR": 7, "BEZIRKSNAME": "Liebenau", "LAGE": "gegenüber", "GS_P_INT": 0, "GS_P_TEXT": "nein", "GS_GV_INT": 0, "GS_GV_TEXT": "nein", "GS_AK_INT": 1, "GS_AK_TEXT": "ja", "LINK": "http:\/\/www.umwelt.graz.at\/cms\/ziel\/4927353\/DE\/" }, "geometry": { "type": "Point", "coordinates": [ 15.454906992655696, 47.042025233714071 ] } },
{ "type": "Feature", "properties": { "OBJECTID": 4062, "SAMMELSTELLENNAME": "Waltendorfer Gürtel 15", "STRASSENNAME": "Waltendorfer Gürtel", "HAUSNUMMER": "15", "BEZIRKS_NR": 2, "BEZIRKSNAME": "St. Leonhard", "LAGE": "gegenüber (Hanschmann)", "GS_P_INT": 0, "GS_P_TEXT": "nein", "GS_GV_INT": 1, "GS_GV_TEXT": "ja", "GS_AK_INT": 0, "GS_AK_TEXT": "nein", "LINK": "http:\/\/www.umwelt.graz.at\/cms\/ziel\/4927353\/DE\/" }, "geometry": { "type": "Point", "coordinates": [ 15.458811193096921, 47.063878152585602 ] } },
{ "type": "Feature", "properties": { "OBJECTID": 4063, "SAMMELSTELLENNAME": "Am Josefgrund 29", "STRASSENNAME": "Am Josefgrund", "HAUSNUMMER": "29", "BEZIRKS_NR": 11, "BEZIRKSNAME": "Mariatrost", "LAGE": null, "GS_P_INT": 0, "GS_P_TEXT": "nein", "GS_GV_INT": 1, "GS_GV_TEXT": "ja", "GS_AK_INT": 0, "GS_AK_TEXT": "nein", "LINK": "http:\/\/www.umwelt.graz.at\/cms\/ziel\/4927353\/DE\/" }, "geometry": { "type": "Point", "coordinates": [ 15.462164375679361, 47.100760744741144 ] } },
{ "type": "Feature", "properties": { "OBJECTID": 4055, "SAMMELSTELLENNAME": "Kapellenstraße 53", "STRASSENNAME": "Kapellenstraße", "HAUSNUMMER": "53", "BEZIRKS_NR": 16, "BEZIRKSNAME": "Straßgang", "LAGE": "Am Wagrain (beim Park, Fußweg)", "GS_P_INT": 0, "GS_P_TEXT": "nein", "GS_GV_INT": 1, "GS_GV_TEXT": "ja", "GS_AK_INT": 0, "GS_AK_TEXT": "nein", "LINK": "http:\/\/www.umwelt.graz.at\/cms\/ziel\/4927353\/DE\/" }, "geometry": { "type": "Point", "coordinates": [ 15.419031707420091, 47.047949324526392 ] } },
{ "type": "Feature", "properties": { "OBJECTID": 4065, "SAMMELSTELLENNAME": "Pulverturmstraße 14", "STRASSENNAME": "Pulverturmstraße", "HAUSNUMMER": "14", "BEZIRKS_NR": 15, "BEZIRKSNAME": "Wetzelsdorf", "LAGE": "Ecke", "GS_P_INT": 0, "GS_P_TEXT": "nein", "GS_GV_INT": 1, "GS_GV_TEXT": "ja", "GS_AK_INT": 0, "GS_AK_TEXT": "nein", "LINK": "http:\/\/www.umwelt.graz.at\/cms\/ziel\/4927353\/DE\/" }, "geometry": { "type": "Point", "coordinates": [ 15.413522425351051, 47.050968645652411 ] } },
{ "type": "Feature", "properties": { "OBJECTID": 4066, "SAMMELSTELLENNAME": "Eckertstraße 51", "STRASSENNAME": "Eckertstraße", "HAUSNUMMER": "51", "BEZIRKS_NR": 14, "BEZIRKSNAME": "Eggenberg", "LAGE": "Ecke Heinrich-Heine-Straße,vor dem Hofermarkt", "GS_P_INT": 0, "GS_P_TEXT": "nein", "GS_GV_INT": 1, "GS_GV_TEXT": "ja", "GS_AK_INT": 1, "GS_AK_TEXT": "ja", "LINK": "http:\/\/www.umwelt.graz.at\/cms\/ziel\/4927353\/DE\/" }, "geometry": { "type": "Point", "coordinates": [ 15.404306534374717, 47.068134148515625 ] } },
{ "type": "Feature", "properties": { "OBJECTID": 4067, "SAMMELSTELLENNAME": "Prangelgasse 19", "STRASSENNAME": "Prangelgasse", "HAUSNUMMER": "19", "BEZIRKS_NR": 14, "BEZIRKSNAME": "Eggenberg", "LAGE": null, "GS_P_INT": 0, "GS_P_TEXT": "nein", "GS_GV_INT": 0, "GS_GV_TEXT": "nein", "GS_AK_INT": 0, "GS_AK_TEXT": "nein", "LINK": "http:\/\/www.umwelt.graz.at\/cms\/ziel\/4927353\/DE\/" }, "geometry": { "type": "Point", "coordinates": [ 15.40657984401097, 47.07211127982886 ] } },
{ "type": "Feature", "properties": { "OBJECTID": 4068, "SAMMELSTELLENNAME": "Elisabethstraße 79", "STRASSENNAME": "Elisabethstraße", "HAUSNUMMER": "79", "BEZIRKS_NR": 3, "BEZIRKSNAME": "Geidorf", "LAGE": "Seebachergasse", "GS_P_INT": 0, "GS_P_TEXT": "nein", "GS_GV_INT": 1, "GS_GV_TEXT": "ja", "GS_AK_INT": 0, "GS_AK_TEXT": "nein", "LINK": "http:\/\/www.umwelt.graz.at\/cms\/ziel\/4927353\/DE\/" }, "geometry": { "type": "Point", "coordinates": [ 15.459570784330827, 47.077311688182846 ] } },
{ "type": "Feature", "properties": { "OBJECTID": 4069, "SAMMELSTELLENNAME": "Lazarettgasse 33", "STRASSENNAME": "Lazarettgasse", "HAUSNUMMER": "33", "BEZIRKS_NR": 5, "BEZIRKSNAME": "Gries", "LAGE": "Lissagasse", "GS_P_INT": 0, "GS_P_TEXT": "nein", "GS_GV_INT": 1, "GS_GV_TEXT": "ja", "GS_AK_INT": 0, "GS_AK_TEXT": "nein", "LINK": "http:\/\/www.umwelt.graz.at\/cms\/ziel\/4927353\/DE\/" }, "geometry": { "type": "Point", "coordinates": [ 15.424577789229739, 47.06347479586708 ] } },
{ "type": "Feature", "properties": { "OBJECTID": 4070, "SAMMELSTELLENNAME": "Auwaldgasse 149", "STRASSENNAME": "Auwaldgasse", "HAUSNUMMER": "149", "BEZIRKS_NR": 7, "BEZIRKSNAME": "Liebenau", "LAGE": null, "GS_P_INT": 0, "GS_P_TEXT": "nein", "GS_GV_INT": 1, "GS_GV_TEXT": "ja", "GS_AK_INT": 0, "GS_AK_TEXT": "nein", "LINK": "http:\/\/www.umwelt.graz.at\/cms\/ziel\/4927353\/DE\/" }, "geometry": { "type": "Point", "coordinates": [ 15.465877804082412, 47.016917732463305 ] } },
{ "type": "Feature", "properties": { "OBJECTID": 4071, "SAMMELSTELLENNAME": "Waltendorfer Hauptstraße 120", "STRASSENNAME": "Waltendorfer Hauptstraße", "HAUSNUMMER": "120", "BEZIRKS_NR": 8, "BEZIRKSNAME": "St. Peter", "LAGE": "Ecke Peterstalstraße", "GS_P_INT": 0, "GS_P_TEXT": "nein", "GS_GV_INT": 0, "GS_GV_TEXT": "nein", "GS_AK_INT": 0, "GS_AK_TEXT": "nein", "LINK": "http:\/\/www.umwelt.graz.at\/cms\/ziel\/4927353\/DE\/" }, "geometry": { "type": "Point", "coordinates": [ 15.488842496476655, 47.069519693893703 ] } },
{ "type": "Feature", "properties": { "OBJECTID": 4072, "SAMMELSTELLENNAME": "Weizbachweg 71", "STRASSENNAME": "Weizbachweg", "HAUSNUMMER": "71", "BEZIRKS_NR": 12, "BEZIRKSNAME": "Andritz", "LAGE": "gegenüber", "GS_P_INT": 0, "GS_P_TEXT": "nein", "GS_GV_INT": 1, "GS_GV_TEXT": "ja", "GS_AK_INT": 0, "GS_AK_TEXT": "nein", "LINK": "http:\/\/www.umwelt.graz.at\/cms\/ziel\/4927353\/DE\/" }, "geometry": { "type": "Point", "coordinates": [ 15.440729456425984, 47.11188023613667 ] } },
{ "type": "Feature", "properties": { "OBJECTID": 4064, "SAMMELSTELLENNAME": "Pappenheimgasse 8", "STRASSENNAME": "Pappenheimgasse", "HAUSNUMMER": "8", "BEZIRKS_NR": 2, "BEZIRKSNAME": "St. Leonhard", "LAGE": "am Gehsteig", "GS_P_INT": 0, "GS_P_TEXT": "nein", "GS_GV_INT": 0, "GS_GV_TEXT": "nein", "GS_AK_INT": 0, "GS_AK_TEXT": "nein", "LINK": "http:\/\/www.umwelt.graz.at\/cms\/ziel\/4927353\/DE\/" }, "geometry": { "type": "Point", "coordinates": [ 15.458965751179413, 47.073931555153742 ] } },
{ "type": "Feature", "properties": { "OBJECTID": 4074, "SAMMELSTELLENNAME": "Trattfelderstraße 6", "STRASSENNAME": "Trattfelderstraße", "HAUSNUMMER": "6", "BEZIRKS_NR": 16, "BEZIRKSNAME": "Straßgang", "LAGE": "Dahlienweg", "GS_P_INT": 0, "GS_P_TEXT": "nein", "GS_GV_INT": 1, "GS_GV_TEXT": "ja", "GS_AK_INT": 0, "GS_AK_TEXT": "nein", "LINK": "http:\/\/www.umwelt.graz.at\/cms\/ziel\/4927353\/DE\/" }, "geometry": { "type": "Point", "coordinates": [ 15.409376031759511, 47.035596471390789 ] } },
{ "type": "Feature", "properties": { "OBJECTID": 4075, "SAMMELSTELLENNAME": "Weblinger Straße 41", "STRASSENNAME": "Weblinger Straße", "HAUSNUMMER": "41", "BEZIRKS_NR": 16, "BEZIRKSNAME": "Straßgang", "LAGE": "bei der Metro", "GS_P_INT": 0, "GS_P_TEXT": "nein", "GS_GV_INT": 1, "GS_GV_TEXT": "ja", "GS_AK_INT": 0, "GS_AK_TEXT": "nein", "LINK": "http:\/\/www.umwelt.graz.at\/cms\/ziel\/4927353\/DE\/" }, "geometry": { "type": "Point", "coordinates": [ 15.398040365676657, 47.030257738788535 ] } },
{ "type": "Feature", "properties": { "OBJECTID": 4076, "SAMMELSTELLENNAME": "Kaiserwiesenweg 32", "STRASSENNAME": "Kaiserwiesenweg", "HAUSNUMMER": "32", "BEZIRKS_NR": 17, "BEZIRKSNAME": "Puntigam", "LAGE": "Auwiesenweg", "GS_P_INT": 0, "GS_P_TEXT": "nein", "GS_GV_INT": 1, "GS_GV_TEXT": "ja", "GS_AK_INT": 0, "GS_AK_TEXT": "nein", "LINK": "http:\/\/www.umwelt.graz.at\/cms\/ziel\/4927353\/DE\/" }, "geometry": { "type": "Point", "coordinates": [ 15.444401193571482, 47.022486259323699 ] } },